시설명,주소,경도,위도
가곡 경로당,경상남도 창원시 의창구 동읍 신촌본포로442번길 26,128.644385896,35.359032004
고양 경로당 ,경상남도 창원시 의창구 동읍 백월로 540 ,128.654864588,35.305038793
곡목 경로당 ,경상남도 창원시 의창구 동읍 동읍로 359번길 43 ,128.661179593,35.298651114
금동 경로당 ,경상남도 창원시 의창구 동읍 동읍로 835번길 7 ,128.666221058,35.333232725
금산 경로당 ,경상남도 창원시 의창구 동읍 동읍로 670번길 6 ,128.664271216,35.323145187
기로회 경로당 ,경상남도 창원시 의창구 동읍 용잠로 45-5 ,128.689181895,35.279517554
남산경로당 ,경상남도 창원시 의창구 동읍 용남길 10번길 74 ,128.660983694,35.277550412
내단 경로당 ,경상남도 창원시 의창구 동읍 자여로 118번길 7 ,128.703888005,35.273251764
노옥 경로당 ,경상남도 창원시 의창구 동읍노연로 143번길 12 ,,
다호 경로당 ,경상남도 창원시 의창구 동읍 의창구 동읍로 267번길 35 ,,
단산경로당 ,경상남도 창원시 의창구 동읍 자여로 78번길 5 ,128.700738139,35.276108432
달천 경로당 ,경상남도 창원시 의창구 동읍 노연로 69번길 27 ,128.661049972,35.362058421
대한APT 경로당 ,경상남도 창원시 의창구 동읍 신방로 17(대한아파트) ,128.683825686,35.285791532
덕산경로당 ,경상남도 창원시 의창구 동읍 덕산길43번길 8 ,128.674307097,35.271624093
덕천경로당 ,경상남도 창원시 의창구 동읍 의창구 동읍로 19번길 50 ,128.684041992,35.279653952
동부산2차아파트경로당 ,경상남도 창원시 의창구 동읍 용정길32번길 14(동부산훼미리타운2차) ,128.702796215,35.277439747
동월 경로당 ,경상남도 창원시 의창구 동읍 주남로 128번길 68-2 ,128.685801761,35.303807020
마룡 경로당 ,경상남도 창원시 의창구 동읍 석산길 51번길 8-18 ,128.660155052,35.317353892
모암 경로당 ,경상남도 창원시 의창구 동읍 의창구 동읍로 213번길 7 ,128.674615033,35.293691432
무성 경로당 ,경상남도 창원시 의창구 동읍 무성길47번길 1 ,128.699385681,35.289348678
무성1구경로당 ,경상남도 창원시 의창구 동읍 무성길47번길 21 ,128.697656599,35.289621279
무성1구남자경로당 ,경상남도 창원시 의창구 동읍 무성길 47번길 21 ,128.697656599,35.289621279
무성부인 경로당 ,경상남도 창원시 의창구 동읍 무성길47번길 1 ,128.699385681,35.289348678
무점 경로당 ,경상남도 창원시 의창구 동읍 무점길 88번길 21-12 ,128.695290335,35.294289350
본포 경로당 ,경상남도 창원시 의창구 동읍 의창구 동읍로 1310번길 68 ,128.646182816,35.368321843
봉강 경로당 ,경상남도 창원시 의창구 동읍 의창구 동읍로 1141번길 31 ,128.653700045,35.350928771
봉곡 경로당 ,경상남도 창원시 의창구 동읍 의창구 동읍로 1057번길  51 ,128.654632496,35.341901322
봉산경로당 ,경상남도 창원시 의창구 동읍 자여로 60번길 11 ,128.699781408,35.276742994
산남 경로당 ,경상남도 창원시 의창구 동읍 봉강가술로 203 ,128.677151388,35.352289398
삼운 경로당 ,경상남도 창원시 의창구 동읍 의창구 동읍로 1153 ,128.656562220,35.352412136
삼진아파트경로당 ,"경상남도 창원시 의창구 동읍의창대로915번길 8, (삼진아파트) ",,
석산 경로당 ,경상남도 창원시 의창구 동읍 석산리 16번길 9 ,,
성진2차경로당 ,경상남도 창원시 의창구 동읍 용정길 46번길 35 ,128.705608763,35.275651236
성진까치빌라경로당 ,경상남도 창원시 의창구 동읍 단계로 84 ,128.705516957,35.276556750
성진정 경로당 ,경상남도 창원시 의창구 동읍 용정길 46번길 53 ,128.706151888,35.273688801
송정1구경로당 ,경상남도 창원시 의창구 동읍 자여로 82 ,128.701584691,35.275954343
송정주공APT경로당 ,경상남도 창원시 의창구 동읍 용정길 26(송정주공아파트) ,128.700678755,35.278303959
신방 경로당 ,경상남도 창원시 의창구 동읍로 112번길 1-5 ,128.680419039,35.286136987
신방 부인 경로당 ,경상남도 창원시 의창구 동읍로 112번길 1-5 ,128.680419039,35.286136987
신안APT 경로당 ,경상남도 창원시 의창구 동읍 의창구 동읍로 13-1 ,128.684073541,35.278224156
양교경로당 ,경상남도 창원시 의창구 동읍 의창구 동읍로 968-2 ,128.667781983,35.342788913
외단경로당 ,경상남도 창원시 의창구 동읍 자여로 115번길 84 ,128.710890471,35.270541721
용강 경로당 ,경상남도 창원시 의창구 동읍의창대로 421번길 43 ,,
용산 경로당 ,경상남도 창원시 의창구 동읍 죽동길 53 ,128.676142146,35.330859073
용산부인경로당 ,경상남도 창원시 의창구 동읍 죽동길 53 ,128.676142146,35.330859073
용암 경로당 ,경상남도 창원시 의창구 동읍의창대로 491번길 57-3 ,,
용연 경로당 ,경상남도 창원시 의창구 동읍 노연로 224-12 ,128.670135268,35.354438162
용잠1구 경로당 ,경상남도 창원시 의창구 동읍 용잠로 42-12 ,128.688140128,35.279440005
용잠1구여성경로당,경상남도 창원시 의창구 동읍 용잠로 42-11,128.688173804,35.279326360
용잠2구 경로당 ,경상남도 창원시 의창구 동읍 의창대로 900번길 9-4 ,128.689439879,35.278179647
용잠3구 경로당 ,경상남도 창원시 의창구 동읍 의창구 동읍로 16-12 ,128.685431069,35.279050544
용잠6구경로당 ,경상남도 창원시 의창구 동읍 의창대로 915번길 17-2 ,128.690351330,35.280758651
용잠본동경로당 ,경상남도 창원시 의창구 동읍 의창구 동읍로 83번길 33-3 ,128.679159616,35.282957637
용잠본동부인경로당 ,경상남도 창원시 의창구 동읍 의창구 동읍로 83번길 33-3 ,128.679159616,35.282957637
용전경로당 ,경상남도 창원시 의창구 동읍 용남길 85 ,128.656521895,35.276769908
용정1구 경로당 ,경상남도 창원시 의창구 동읍 자여로 100 ,128.703194298,35.274987427
용정2구 경로당 ,경상남도 창원시 의창구 동읍 용정길 46번길 49-1 ,128.705502855,35.274780871
용정3구경로당 ,경상남도 창원시 의창구 용정길46번길 42-10 ,128.704433139,35.275303389
원봉강 경로당 ,경상남도 창원시 의창구 동읍 의창구 동읍로 1187번길 12 ,128.653801555,35.355595814
원창아파트 경로당 ,경상남도 창원시 의창구 동읍 의창대로858 (원창호수아파트) ,,
월잠 경로당 ,경상남도 창원시 의창구 동읍 주남로 61번길 1 ,128.674055295,35.303430779
이운 경로당 ,경상남도 창원시 의창구 동읍 백월로 549 ,128.655671995,35.304696572
전촌 경로당 ,경상남도 창원시 의창구 동읍 의창구 동읍로 1223번길 36-17 ,128.652343314,35.358663102
죽동 경로당 ,경상남도 창원시 의창구 동읍 봉강가술로 237번길 8 ,128.680670020,35.352646006
칠성그린APT 경로당 ,경상남도 창원시 의창구 동읍 의창구 동읍로 218(칠성그린아파트) ,128.675257710,35.294336233
판신경로당 ,경상남도 창원시 의창구 동읍 주남로 184번길 5 ,128.687195652,35.307569172
합산 경로당 ,경상남도 창원시 의창구 동읍 죽동길 25번길 66 ,128.676029672,35.336589342
화목 경로당 ,경상남도 창원시 의창구 동읍 화양길 72,128.649746320,35.301195974
STX칸1차아파트경로당,경상남도 창원시 의창구 북면 무동서로 76,128.580212461,35.321606767
갈전경로당,경상남도 창원시 의창구 북면 구룡로380번길 47-1,128.621548027,35.306579763
감계아내1차아파트경로당,경상남도 창원시 의창구 북면 감계로 277,128.592454445,35.302637524
감계아내2차아파트경로당,경상남도 창원시 의창구 북면 감계로 342,128.596501386,35.300276702
감계푸르지오아파트경로당,경상남도 창원시 의창구 북면 감계로 221,128.585172341,35.299934765
감계휴먼빌경로당,경상남도 창원시 의창구 북면 감계로 297,128.593450158,35.302812030
감계힐스테이트1차아파트경로당,경상남도 창원시 의창구 북면 동전로 86 ,128.597773786,35.303604282
감계힐스테이트2차아파트경로당,경상남도 창원시 의창구 북면 감계로 341,128.598373072,35.302693045
감계힐스테이트3차아파트경로당,경상남도 창원시 의창구 북면 감계로 259,128.589609878,35.302558542
감계힐스테이트4차아파트경로당,경상남도 창원시 의창구 북면 감계로 233,128.584269467,35.299975495
고암경로당,경상남도 창원시 의창구 북면 고암길 26,128.629939743,35.295234473
남백경로당,경상남도 창원시 의창구 북면 백월로277번길 10,128.637285000,35.318638550
내감경로당,경상남도 창원시 의창구 북면 내감1길 20,128.590807244,35.301061682
내감부인경로당,경상남도 창원시 의창구 북면 내감1길 20,128.590807244,35.301061682
내산경로당,경상남도 창원시 의창구 북면 외산로157번길 5-4,128.590079145,35.376115365
대천경로당,경상남도 창원시 의창구 북면 천주로 606,128.602548039,35.309506670
대한경로당,경상남도 창원시 의창구 북면 구룡로 79-15,128.618564565,35.288561378
대호아파트경로당,경상남도 창원시 의창구 북면 천주로 1053(대호아파트),128.605456961,35.345329464
동전경로당,경상남도 창원시 의창구 북면 동전무동길 30,128.596763550,35.316543943
마산경로당,경상남도 창원시 의창구 북면 마산길 48,128.621238591,35.342287994
마산부인경로당,경상남도 창원시 의창구 북면 마산길 49,128.621496746,35.342524652
명촌경로당,경상남도 창원시 의창구 북면 외산로 349,128.598150767,35.385972508
명호경로당,경상남도 창원시 의창구 북면 천주로759번길 15-9,128.600584107,35.321109614
무동경로당,경상남도 창원시 의창구 북면 무동안길 20-5,128.578587051,35.317606946
무동휴먼빌경로당(1단지),"경상남도 창원시 의창구 북면 동곡로 33, 108동",128.584051262,35.319176009
무동휴먼빌2단지아파트경로당,경상남도 창원시 의창구 북면 동곡로 35,128.582769671,35.320470540
무동휴먼빌3단지아파트경로당,경상남도 창원시 의창구 북면 무동로226번길 19,128.583011095,35.317861167
바깥신천경로당,경상남도 창원시 의창구 북면 천주로 1398-12,128.626420986,35.368208537
북면경로당,경상남도 창원시 의창구 북면 천주로1128번길 8,128.608781955,35.350508570
소라경로당,경상남도 창원시 의창구 북면 온천로587번길 17-3,128.583624056,35.359585610
상천(봉촌)경로당,경상남도 창원시 의창구 북면 온천로 648-22,128.589730866,35.359518412
센텀파라디아아파트경로당,경상남도 창원시 의창구 북면 무동서로 24,128.582398712,35.319222282
송촌경로당,경상남도 창원시 의창구 북면 무릉산길 239-3,128.577560908,35.342564139
승산경로당,경상남도 창원시 의창구 북면 구룡로 339,128.624490974,35.302687141
신기경로당,경상남도 창원시 의창구 북면 천주로 1337,128.623275221,35.363971466
신동경로당,경상남도 창원시 의창구 북면 천주로 1337,128.623275221,35.363971466
신리경로당,경상남도 창원시 의창구 북면 신리길35번길 2,128.604332813,35.348008506
신리부녀경로당,경상남도 창원시 의창구 북면 신리길 17,128.605534060,35.346726338
신목경로당,경상남도 창원시 의창구 북면 천주로1263번길 2,128.618073161,35.359183646
신우경로당,경상남도 창원시 의창구 북면 신촌본포로 12-10,128.608781642,35.347093189
신음경로당,경상남도 창원시 의창구 북면 무릉산길 2,128.584555366,35.328906665
신천경로당,경상남도 창원시 의창구 북면 하천로 245,128.612977089,35.373027144
신한1차아파트경로당,경상남도 창원시 의창구 북면 천주로 1104(신한그린파크맨션),128.607835648,35.349265493
신한2차아파트경로당,경상남도 창원시 의창구 북면 천주로 1103(신한2차아파트),128.607261813,35.348821907
양지경로당,경상남도 창원시 의창구 북면 구룡로314번길 1,128.627069534,35.303949060
양촌경로당,경상남도 창원시 의창구 북면 운무로783번길 60,128.584891816,35.330926491
연동경로당,경상남도 창원시 의창구 북면 신촌본포로 186,128.626011351,35.346976832
온천남자경로당,경상남도 창원시 의창구 북면 천주로1128번길 8,128.608781955,35.350508570
온천부녀경로당,경상남도 창원시 의창구 북면 천주로1128번길 8,128.608781955,35.350508570
외감경로당,경상남도 창원시 의창구 북면 달천길52번길 28,128.599121406,35.289982816
외감부인경로당,경상남도 창원시 의창구 북면 달천길52번길 28,128.599121406,35.289982816
월계경로당,경상남도 창원시 의창구 북면 월계길9번길 87,128.639416495,35.347646388
월백경로당,경상남도 창원시 의창구 북면 백월로167번길 14,128.625807083,35.321361834
월백부녀경로당,경상남도 창원시 의창구 북면 백월로167번길 14,128.625807083,35.321361834
월촌경로당,경상남도 창원시 의창구 북면 백월로87번월촌길 54,128.620570218,35.323209178
중리경로당,경상남도 창원시 의창구 북면 단내로 701-14,128.593186501,35.341033536
중방경로당,경상남도 창원시 의창구 북면 중방길 3-22,128.592172141,35.296793145
중촌경로당,경상남도 창원시 의창구 북면 하천로86번길 22-1,128.603753474,35.365740314
지개경로당,경상남도 창원시 의창구 북면 구룡로38번길 39,128.617357487,35.284627953
천수림아파트경로당,"경상남도 창원시 의창구 북면 감계로 222, 103동 지하1층 (천수림)",128.587507503,35.301786270
청우아파트경로당,경상남도 창원시 의창구 북면 천주로1083번길 10-1,128.607183928,35.348051573
초소경로당,경상남도 창원시 의창구 북면 외산로 207,128.594624188,35.378173171
춘광1차아파트경로당,경상남도 창원시 의창구 북면 신촌본포로 14(춘광아파트),128.609684582,35.347287029
춘광2차아파트경로당,경상남도 창원시 의창구 북면 신촌본포로 12-13(춘광아파트),128.608998032,35.347094115
춘광마을경로당,경상남도 창원시 의창구 북면 신촌본포로 28,128.610018573,35.346879871
하천(대촌)경로당,경상남도 창원시 의창구 북면 하천로 129,128.603626979,35.368073472
현도경로당,경상남도 창원시 의창구 북면 외산로117번길 9,128.592278349,35.372914392
현천노인당,경상남도 창원시 의창구 북면 단내로591번길 8-10,128.583140647,35.344592089
화천경로당,경상남도 창원시 의창구 북면 천주로480번길 10-3,128.604402888,35.300411780
화천부녀경로당,경상남도 창원시 의창구 북면 천주로480번길 10-3,128.604402888,35.300411780
신전경로당,경상남도 창원시 의창구 대산면 갈전로 17,128.673670467,35.366947590
상리경로당,경상남도 창원시 의창구 대산면 갈전로 67-13,128.678353268,35.366551730
갈전경로당,경상남도 창원시 의창구 대산면 죽송로119번길 7-16,128.682229798,35.359491453
갈전부인경로당,경상남도 창원시 의창구 대산면 대산북로385번길 16,128.680994442,35.364138185
평리경로당,경상남도 창원시 의창구 대산면 대산북로385번길 18-3,128.680716614,35.364483973
송정경로당,경상남도 창원시 의창구 대산면 죽송로 119번길 10,128.682694574,35.359680131
유목경로당,경상남도 창원시 의창구 대산면 갈전로90번길 16 ,128.680979438,35.365327069
일동경로당,경상남도 창원시 의창구 대산면 갈전로119번길 10 -1,128.684109426,35.368907167
일동부인경로당,경상남도 창원시 의창구 대산면 갈전로119번길 3-19,128.683046193,35.368816340
구산경로당,경상남도 창원시 의창구 대산면 대산북로524번길 97-10,128.694495632,35.358374537
당리경로당,경상남도 창원시 의창구 대산면 대산북로485번길 23,128.690917293,35.369257746
신성경로당,경상남도 창원시 의창구 대산면 대산북로 517,128.694018011,35.367742596
수성경로당,경상남도 창원시 의창구 대산면 대산북로 568-15,128.699984750,35.366614204
북모산경로당,경상남도 창원시 의창구 대산면 대산북로751번길 5,128.714500189,35.356365056
남모산경로당,경상남도 창원시 의창구 대산면 모산길 34,128.711617925,35.354136089
송등경로당,경상남도 창원시 의창구 대산면 진산대로506번길 46-18,128.715521563,35.347383208
북가술경로당,경상남도 창원시 의창구 대산면 가술길 37,128.706776693,35.337439486
해강그린아파트경로당,"경상남도 창원시 의창구 대산면 진산대로 437, 1206호 (해강아파트)",128.708300551,35.338686849
남가술경로당,경상남도 창원시 의창구 대산면 가술길 13-1,128.707315891,35.335334475
남가술부인경로당,경상남도 창원시 의창구 대산면 주남로 559-7,128.707146196,35.333824465
가촌경로당,경상남도 창원시 의창구 대산면 봉강가술로 471번길 34-13,128.699934379,35.336110363
장등경로당,경상남도 창원시 의창구 대산면 주남로483번길 22,128.702282945,35.328829314
신등경로당,경상남도 창원시 의창구 대산면 가술산남로 65,128.692336396,35.324124098
신동경로당,경상남도 창원시 의창구 대산면 가술산남로12번길 22-2,,
백양경로당 ,경상남도 창원시 의창구 대산면 가술산남로130번길 24,128.688456522,35.329548544
주남경로당,경상남도 창원시 의창구 대산면 주남로327번길 35-44 ,128.689683751,35.315856882
대방경로당,경상남도 창원시 의창구 대산면 봉강가술로358번길 28-5,128.688473505,35.344952283
대방여성경로당,경상남도 창원시 의창구 대산면 봉강가술로 421,128.694885589,35.341777520
제동경로당,경상남도 창원시 의창구 대산면 제동길 39-17,128.712669546,35.334271916
제동부인경로당,경상남도 창원시 의창구 대산면 제동길 24-2,128.711467247,35.332809514
중앙경로당,경상남도 창원시 의창구 대산면 주남로394번길 33 5통 5반,128.699430508,35.318004862
삼봉경로당,경상남도 창원시 의창구 대산면 진산대로292번길 35,128.717539033,35.329035968
대진경로당,경상남도 창원시 의창구 대산면 진남로114번길 57,128.712305856,35.317369579
상포부녀경로당,경상남도 창원시 의창구 대산면 진남로114번길 143,128.714668999,35.324345402
상등경로당,경상남도 창원시 의창구 대산면 주남로416번길 17,128.702045178,35.322761214
고등포경로당,경상남도 창원시 의창구 대산면 주남로394번길 55,128.699860024,35.315872303
남포경로당,경상남도 창원시 의창구 대산면 진남로 69-10,128.708607776,35.309513818
우암마을경로당,경상남도 창원시 의창구 대산면 북부로10번길32,128.725854166,35.340584594
덕현경로당,경상남도 창원시 의창구 대산면 우암로 27,128.729070077,35.334835056
월림경로당,경상남도 창원시 의창구 대산면 우암로79번길 6 -1,128.732065958,35.330870785
신곡부인경로당,경상남도 창원시 의창구 대산면 우암로 100,128.732589175,35.329028016
신곡경로당,경상남도 창원시 의창구 대산면 우암로 139,128.736017959,35.327575613
용등경로당,경상남도 창원시 의창구 대산면 우암로 183,128.739849290,35.326192282
중포마을경로당,경상남도 창원시 의창구 대산면 진산대로260번길 84 ,128.722877401,35.322073076
동부경로당,경상남도 창원시 의창구 대산면 대산북로899번길 11,128.724529327,35.347803531
서부경로당,경상남도 창원시 의창구 대산면 대산북로893번길 28,128.722418916,35.348936081
유청경로당,경상남도 창원시 의창구 대산면 유등로 366,128.744098354,35.343370106
유등경로당,경상남도 창원시 의창구 대산면 유등로 413,128.747969202,35.345254829
유등부인경로당,경상남도 창원시 의창구 대산면 유등로387번길 10,128.744736258,35.345446608
동곡경로당,경상남도 창원시 의창구 대산면 유등남길40번길 6,128.735760501,35.333226089
대산NHF1단지경로당,"경상남도 창원시 의창구 대산면 주남로 514, 101동 1403호(엔에이치에프창원대산1단지)",128.705931204,35.329355402
소답경로당,경상남도 창원시 의창구 의안로 32번길 34-1(소답동),128.627452889,35.264187051
재건경로당,경상남도 창원시 의창구 읍성로 41번길 2-9(북동),128.623009311,35.265438875
중동경로당,경상남도 창원시 의창구 의안로 31번길 14-1(중동),128.622501314,35.264628120
북동경로당,경상남도 창원시 의창구 의안로 55번길 34-1(북동),128.620281207,35.266686200
동정경로당,경상남도 창원시 의창구 동정길 31-6(동정동),128.613611337,35.264487708
서상경로당,경상남도 창원시 의창구 천주로 12번길 12-6(서상동),128.619506753,35.262528956
무학아파트경로당,경상남도 창원시 의창구 의창대로 139번길 23(동정동),128.613991309,35.263820306
소계경로당,경상남도 창원시 의창구 금강로 355번길 39(소계동),128.598501406,35.259362380
의창경로당,경상남도 창원시 의창구 의안로 56번길 21(소답동),128.626209966,35.266740783
오성아파트 경 로 당,"경상남도 창원시 의창구 서상로 27(동정동, 동정오성아파트)",128.615735135,35.263504827
흥한웰가 경 로 당,"경상남도 창원시 의창구 천주로 33(동정동, 흥한웰가아파트) ",128.616564376,35.264869336
대동다숲 경 로 당,"경상남도 창원시 의창구 팔용로 512 (서상동,중동대동 다숲아파트)",128.618609590,35.261139403
강무경로당,경상남도 창원시 의창구 서상로 25번길 10-9 (동정동),128.615639147,35.264031663
천주경로당,경상남도 창원시 의창구 소계로 128(소계동),128.596613275,35.260052504
소답제2 경로당,경상남도 창원시 의창구 읍성로 117번길23 (소답동),,
무학서문마을아파트경로당,경상남도 창원시 의창구 서상로12번길 83-15 (서상동),128.622036190,35.262245985
유니시티2단지아파트경로당,"경상남도 창원시 의창구 중동로 33 (중동,유니시티2단지A)",128.627510962,35.255850842
유니시티1단지아파트경로당,"경상남도 창원시 의창구 중동로 34 (중동,유니시티1단지A) 111동 1층",128.625879544,35.254016610
유니시티4단지아파트경로당,경상남도 창원시 의창구 중동로78(중동유니시티4단지A) 시니어클럽(경로당) 402동 1층,,
유니시티3단지아파트경로당,경상남도 창원시 의창구 중동로77(중동) 302동 창원중동유니시티3단지아파트경로당,,
팔룡 제1경로당,경상남도 창원시 의창구 팔용로423번길 5,128.611344999,35.254858873
팔룡제2경로당,경상남도 창원시 의창구 사화로80번길 16,128.614379706,35.252587753
구슬비경로당,경상남도 창원시 의창구 남산로27번길 16,128.614224908,35.259919285
대동중앙(아)경로당,경상남도 창원시 의창구 반계로 101,128.616149704,35.254835486
극동아파트경로당,경상남도 창원시 의창구 팔용로 446,128.615087551,35.255798653
차룡대동(아)경로당,경상남도 창원시 의창구 반계로 95,128.615702599,35.253902978
벽산블루밍A단지경로당,경상남도 창원시 의창구 반계로 104-9,128.617541971,35.254233415
벽산블루밍B단지경로당,경상남도 창원시 의창구 반계로 104-8,128.618196774,35.252626900
벽산블루밍C단지경로당,경상남도 창원시 의창구 남산로 20,128.612067063,35.258978161
명곡경로당,경상남도 창원시 의창구 태복산로15번길 8,128.640191536,35.253936553
낙원경로당,경상남도 창원시 의창구 도계로73번길 19,128.640451176,35.259252703
안골경로당,경상남도 창원시 의창구 하남천서길65,128.642123509,35.263617772
도계경로당,경상남도 창원시 의창구 도계두리길86번길 14-2,128.638554300,35.262107508
새동네경로당,경상남도 창원시 의창구 도계로4번길 18-1,128.634026433,35.258020908
도계휴먼시아경로당,경상남도 창원시 의창구 원이대로82번길,128.635556053,35.254990896
명서2경로당,경상남도 창원시 의창구 우곡로 73,128.640017270,35.247138274
명서주민복지회관경로당,경상남도 창원시 의창구 우곡로101번길 30-3,128.642144362,35.243139439
명서1경로당,경상남도 창원시 의창구 원이대로270번길 18,128.648324910,35.241586609
명지경로당,경상남도 창원시 의창구 명서로123번길 9,128.648628693,35.245940786
서곡경로당,경상남도 창원시 의창구 명지로109번길 18,128.650083206,35.249572438
두산위브경로당,경상남도 창원시 의창구 도계로 135,128.642761240,35.253975382
지귀경로당,경상남도 창원시 의창구 봉곡로3번길 15,128.661144022,35.245469371
봉곡경로당,경상남도 창원시 의창구 봉곡로24번길 9-20,128.664738046,35.248338676
연덕경로당,경상남도 창원시 의창구 봉곡로68번길 16,128.666457479,35.247877508
동부경로당,경상남도 창원시 의창구 봉곡로111번길 35,128.674032819,35.246567375
봉곡복지경로당,경상남도 창원시 의창구 창이대로165번길 7,128.655202364,35.244706561
사림제1경로당,경상남도 창원시 의창구 창이대로343번길 94-9,128.682829230,35.244204276
사림제2경로당,경상남도 창원시 의창구 사림로16번길 27,128.678212066,35.245197592
정병산경로당,경상남도 창원시 의창구 용지로281번길 10,128.688423921,35.238752985
웅남경로당,경상남도 창원시 의창구 사림로71번길 18,128.681165771,35.247539983
봉촌경로당,경상남도 창원시 의창구 지귀로73번길 8-27,128.656016821,35.248018650
봉덕경로당,경상남도 창원시 의창구 봉곡로120번길 28-10,128.667887384,35.247278061
휴먼시아1단지경로당,경상남도 창원시 의창구 소봉로 50,128.669518461,35.253434829
휴먼시아 2단지경로당,경상남도 창원시 의창구 대봉로 25 ,128.664784114,35.251183176
피닉스포레경로당,경상남도 창원시 의창구 대봉로 27,128.664664415,35.251688630
코오롱아파트경로당,경상남도 창원시 의창구 지귀로95번길 7,128.656773343,35.247513369
까치1차(아)경로당,경상남도 창원시 성산구 창원천로 254 (반지동),128.667009123,35.244722769
까치2단지(아)경로당,경상남도 창원시 성산구 창원천로 256 (반지동),128.666921546,35.245454895
노블파크(아)경로당,경상남도 창원시 성산구 원이대로 449 (반림동),128.664976048,35.236476929
대동(아)경로당,경상남도 창원시 성산구 창원천로 292 (반지동),128.670092293,35.244897474
럭키아파트경로당,경상남도 창원시 성산구 반송로 105 (반림동),128.669166618,35.239036359
반지경로당,경상남도 창원시 성산구 창원천로188번길 23-1 (반지동),128.659850703,35.241681991
반지제2경로당,경상남도 창원시 성산구 반지로4번길 29-19 (반지동),128.662560070,35.238510791
반지제3경로당,경상남도 창원시 성산구 반지로 58 (반지동),128.663141367,35.242658448
반지제4경로당,경상남도 창원시 성산구 창원천로162번길 14 (반지동),128.656548872,35.241938601
트리비앙(아)경로당,경상남도 창원시 성산구 원이대로 495 (반림동),128.669724925,35.234277458
현대건설(아)경로당,경상남도 창원시 성산구 반송로 177 (반림동),128.674944433,35.236903791
현대산업아파트경로당,경상남도 창원시 성산구 외동반림로 219 (반림동),128.675938945,35.238450548
내동아파트경로당,경상남도 창원시 성산구 삼동로128번길 60 (내동),128.663510226,35.220668348
내동그라미아파트경로당,경상남도 창원시 성산구 연덕로184번길 19 (내동),128.667994925,35.218161448
대우아파트경로당,경상남도 창원시 성산구 상남로 48 (상남동),128.680275380,35.217786519
대호타워아파트경로당,경상남도 창원시 성산구 상남로24번길 13 (상남동),128.677822094,35.217048724
동성샛별아파트경로당,경상남도 창원시 성산구 연덕로184번길 1 (내동),128.666458139,35.219068431
외동경로당,경상남도 창원시 성산구 용지로21번길 30 (중앙동),128.672818507,35.220178361
외동월드메르디앙(아)경로당,경상남도 창원시 성산구 창원대로780번길 34 (외동),128.675160355,35.213842132
장수경로당,경상남도 창원시 성산구 외동반림로134번길 15 (중앙동),128.674123556,35.229780620
중앙경로당,경상남도 창원시 성산구 원이대로566번길 27-25 (중앙동),128.676735778,35.226523121
중앙제1경로당,경상남도 창원시 성산구 원이대로580번길 31 (중앙동),128.677521047,35.225798970
송죽경로당,경상남도 창원시 성산구 외동반림로46번길 17 (중앙동),128.674288292,35.222999790
내동월드메르디앙(아)경로당,경상남도 창원시 성산구 삼동로128번길 24 (내동),128.656391537,35.224597231
상남꿈에그린아파트경로당,경상남도 창원시 성산구 토월로27번길 18 (상남동),128.679440731,35.216341181
대원경로당,경상남도 창원시 성산구 대원로27번길 30 (대원동),128.650199500,35.232572580
대원파크빌경로당,경상남도 창원시 성산구 삼동로 121 (대원동),128.654954934,35.224877872
대동1차(아)경로당,경상남도 창원시 성산구 창원대로548 (대원동),128.653926020,35.225696134
대원대동2차(아)경로당,경상남도 창원시 성산구 창원대로538 (대원동),128.653083543,35.226282243
The City7 자이 경로당,경상남도 창원시 성산구 창원천로 94번길 19 (대원동),128.653952416,35.239448616
포레나대원아파트경로당,경상남도 창원시 성산구 창원천로 34 (대원동),128.648734492,35.235019046
용호경로당,경상남도 창원시 성산구 창이대로 440번길 17 (용호동),128.682609548,35.239235860
용지경로당,경상남도 창원시 성산구 용지로 239번길 19-4 (용호동),128.684342517,35.236067055
일동아파트1단지경로당,경상남도 창원시 성산구 외동반림로 216 (용호동),128.679084087,35.235820449
일동아파트2단지경로당,경상남도 창원시 성산구 외동반림로 216 (용호동),128.679084087,35.235820449
무학아파트1단지경로당,경상남도 창원시 성산구 외동반림로 200 (용호동),128.676710501,35.235482503
무학아파트2단지경로당,경상남도 창원시 성산구 외동반림로 200 (용호동),128.676710501,35.235482503
롯데아파트경로당,경상남도 창원시 성산구 용지로 229 (용호동),128.684136430,35.235040019
신월제1경로당,경상남도 창원시 성산구 신사로 21번길 36 (신월동),128.690592400,35.228805283
신월제2경로당,경상남도 창원시 성산구 창이대로 586번길 1 (신월동),128.694753187,35.230989493
신월은아아파트경로당,경상남도 창원시 성산구 원이대로 663 (신월동),128.686635650,35.224718269
용지아이파크경로당,경상남도 창원시 성산구 원이대로 579번길 13 (용호동),128.678410388,35.229288008
용지더샵레이크파크경로당,경상남도 창원시 성산구 외동반림로 156 (용호동),128.675628970,35.230937899
성원1단지(아)경로당,경상남도 창원시 성산구 원이대로 774 (상남동),128.692818519,35.216827366
성원2단지(아)경로당,경상남도 창원시 성산구 원이대로 774 (상남동),128.692818519,35.216827366
성원3단지1경로당,경상남도 창원시 성산구 원이대로 774 (상남동),128.692818519,35.216827366
성원3단지2경로당,경상남도 창원시 성산구 원이대로 774 (상남동),128.692818519,35.216827366
성원5단지1경로당,경상남도 창원시 성산구 원이대로 774 (상남동),128.692818519,35.216827366
성원5단지2경로당,경상남도 창원시 성산구 원이대로 774 (상남동),128.692818519,35.216827366
상남동대동아파트경로당,경상남도 창원시 성산구 동산로 115 (상남동),128.690472329,35.219180383
상남경로당,경상남도 창원시 성산구 단정로58번길 6 (상남동),128.685657379,35.217914877
동산경로당,경상남도 창원시 성산구 동산로54번길 17 (상남동),128.687936728,35.214626074
토월고산경로당,경상남도 창원시 성산구 비음로 55번길 6-22 (사파동),128.701880545,35.227062932
사파정경로당,경상남도 창원시 성산구 동산로 176번길 52 (사파동),128.698310663,35.220071391
사파경로당,경상남도 창원시 성산구 창이대로 684번길 30 (사파동),128.696856620,35.222389871
사파신덕경로당,경상남도 창원시 성산구 창이대로 639번길 11 (사파동),128.698688186,35.227889283
사파제2경로당,경상남도 창원시 성산구 창이대로 719번길 8-15 (사파동),128.702658686,35.220307295
사파대동(아)제1경로당,경상남도 창원시 성산구 신사로 106 (사파동),128.694666521,35.220818498
사파대동(아)제2경로당,경상남도 창원시 성산구 신사로 106 (사파동),128.694666521,35.220818498
삼익아파트경로당,경상남도 창원시 성산구 원이대로 773번길 13 (사파동),128.695233164,35.219710267
무궁화(아)경로당,경상남도 창원시 성산구 동산로 148 (사파동),128.692829607,35.219823285
사파동성(아)경로당,경상남도 창원시 성산구 창이대로 737 (사파동),128.703507550,35.219160460
성원남산(아)경로당,경상남도 창원시 성산구 대암로 126 (대방동),128.708214160,35.214654287
대방성원3차(아)경로당,경상남도 창원시 성산구 대암로 82 (대방동),128.706430987,35.215040209
대방대동(아)경로당,경상남도 창원시 성산구 대정로 14 2(대방동),128.697324067,35.208286747
대방개나리1차(아)경로당,경상남도 창원시 성산구 대정로 149 (대방동),128.708277796,35.213087270
대방덕산1차(아)경로당,경상남도 창원시 성산구 대정로 131 (대방동),128.706737518,35.212673850
대방덕산2차(아)경로당,경상남도 창원시 성산구 대암로 272 (대방동),128.708655124,35.203916684
대방그린빌(아)경로당,경상남도 창원시 성산구 대암로 256 (대방동),128.710570277,35.204978396
대방동성(아)경로당,경상남도 창원시 성산구 대암로 282 (대방동),128.707936577,35.203775879
대방대동디지털(아)경로당,경상남도 창원시 성산구 창이대로 881번길 8 (대방동),128.707393650,35.206244706
대방대동황토방아파트경로당,경상남도 창원시 성산구 창이대로 881번길 19 (대방동),128.708721159,35.207834291
가음정경로당,경상남도 창원시 성산구 가음정로 11번길 6-7 (가음동),128.686822587,35.210994987
창원더샵센트럴파크경로당,경상남도 창원시 성산구 원이대로863번길 19 (가음동),128.697630017,35.209145635
은아(아)경로당,경상남도 창원시 성산구 원이대로883번길 6 (가음동),128.693945727,35.206445365
소라(아)경로당,경상남도 창원시 성산구 성산패총로178번길 51 (가음동),128.687943458,35.207048968
우성(아)경로당,경상남도 창원시 성산구 대암로 22 (남양동),128.697176937,35.212939692
롯데(아)경로당,경상남도 창원시 성산구 대암로 56 (남양동),128.701863760,35.214350746
동성아파트경로당,경상남도 창원시 성산구 대암로 60 (남양동),128.702936907,35.214610019
성원1차(아)경로당,경상남도 창원시 성산구 대정로 73 (남양동),128.701163996,35.211041520
성원2차(아)경로당,경상남도 창원시 성산구 대정로 99 (남양동),128.702846171,35.211422428
피오르빌(아)경로당,경상남도 창원시 성산구 대정로 84 (남양동),128.700875588,35.209443900
대방경로당,경상남도 창원시 성산구 가음로57번길 16-21 (남양동),128.703918017,35.207425177
음지경로당,경상남도 창원시 성산구 가음로57번길 16-21 (남양동),128.703918017,35.207425177
가음동경로당,경상남도 창원시 성산구 가양로52번길 27 (가음동),128.702717653,35.205388746
개나리3차(아)경로당,경상남도 창원시 성산구 대정로 100 (남양동),128.704765628,35.211309686
한림(아)경로당,경상남도 창원시 성산구 대암로 8 (남양동),128.698219415,35.213421671
위드파크아파트경로당,경상남도 창원시 성산구 가양로 99 (남양동),128.703561156,35.210305935
남산경로당,경상남도 창원시 성산구 가음로101번길 6-8 (남양동),128.704366724,35.204212222
가음꿈에그린아파트경로당,경상남도 창원시 성산구 원이대로878번길 9 (가음동),128.692883767,35.209185047
창원센텀푸르지오경로당,경상남도 창원시 성산구 가음정로 59 (가음동),128.690945027,35.208388006
성남경로당,경상남도 창원시 성산구가음로64번길 8 (가음동),128.701558071,35.207060067
서광파크빌(아)경로당,경상남도 창원시 성산구 안민안길 50 (천선동),128.694396587,35.187243257
안민경로당,경상남도 창원시 성산구 안민로117번길 17 (안민동),128.689721216,35.187412309
한솔(아)경로당,경상남도 창원시 성산구 안민로 161 (안민동),128.691439409,35.185727650
청솔(아)경로당,경상남도 창원시 성산구 안민로101번길 29 (안민동),128.687771756,35.189680544
신우에이스타운경로당,경상남도 창원시 성산구 안민안길 8 (안민동),128.690317445,35.185473719
한양아파트경로당,경상남도 창원시 성산구 정동로162번길 69 (남산동),128.697813999,35.201450133
대우(아)경로당,경상남도 창원시 성산구 정동로162번길 31 (남산동),128.693467507,35.203812209
한림푸르지오(아)경로당,경상남도 창원시 성산구 외리로34번길 13 (성주동),128.709518758,35.202221500
유니온빌리지(아)경로당,경상남도 창원시 성산구 삼정자로 79 (성주동),128.714431081,35.200415234
프리빌리지경로당,경상남도 창원시 성산구 대암로 253 (성주동),128.708546723,35.203255578
프리빌리지2차경로당,경상남도 창원시 성산구 창원대로1209번길 22 (성주동),128.715882106,35.194861036
삼정자경로당,경상남도 창원시 성산구 삼정자로51번길15 (성주동),128.711271684,35.199464800
불모산경로당,경상남도 창원시 성산구 불모산로66번길 11 (성주동),128.725112490,35.189455403
양곡경로당,경상남도 창원시 성산구 양곡길106번길 1-12 (양곡동),128.627066280,35.200304676
동성1차경로당,경상남도 창원시 성산구 신촌로 95 (신촌동),128.629140763,35.202079790
동성2차경로당,경상남도 창원시 성산구 신촌로 63 (신촌동),128.628202748,35.204169259
동성빌라2차경로당,경상남도 창원시 성산구 신촌로 43 (신촌동),128.627507716,35.205684178
성원아파트경로당,경상남도 창원시 성산구 신촌로 123 (신촌동),128.629069211,35.198030468
귀산경로당,경상남도 창원시 성산구 귀산로58번길 14 (귀산동),128.615912723,35.165883165
석교경로당,경상남도 창원시 성산구 삼귀로466번길 8 (귀산동),128.609394327,35.157519047
갯마을경로당,경상남도 창원시 성산구 삼귀로 375-11 (귀산동),128.607574047,35.164380805
용호마을경로당,경상남도 창원시 성산구 삼귀로 185-9 (귀곡동),128.599451023,35.169846645
동부산아이존빌경로당,경상남도 창원시 성산구 신촌로 94 (신촌동),128.627840942,35.200517678
신촌경로당,경상남도 창원시 성산구 양곡길 53 (신촌동),128.626898423,35.205391893
신촌동원로얄듀크1차아파트경로당,경상남도 창원시 성산구 신촌로 130 (신촌동),128.628563233,35.197803858
구복남성경로당,경상남도 창원시 마산합포구 구산면 구복길 74(구산면),128.569394691,35.070173923
구복여성경로당,경상남도 창원시 마산합포구 구산면 구복길 74(구산면),128.569394691,35.070173923
구산경로당,경상남도 창원시 마산합포구 구산면 해양관광로 1432(구산면),128.583224742,35.089114016
구산음달경로당,경상남도 창원시 마산합포구 구산면 구산로 566-1(구산면),128.580282010,35.120612828
군령경로당,경상남도 창원시 마산합포구 구산면 석곡로 39(구산면),128.544754625,35.118574893
난포경로당,경상남도 창원시 마산합포구 구산면 난포1길 36(구산면),128.604970154,35.081242908
내포남성경로당,경상남도 창원시 마산합포구 구산면 내포2길 95(구산면),128.578677693,35.098393033
내포여성경로당,경상남도 창원시 마산합포구 구산면 내포2길 110(구산면),128.578003384,35.098648491
명주경로당,경상남도 창원시 마산합포구 구산면 해양관광로 933(구산면),128.548661036,35.107810865
반동남성경로당,경상남도 창원시 마산합포구 구산면 반동길 88(구산면),128.582942331,35.083844940
반동여성경로당,경상남도 창원시 마산합포구 구산면 반동길 90-1(구산면),128.582717554,35.083780925
상마전경로당,경상남도 창원시 마산합포구 구산면마전길 317-4(구산면),,
석곡경로당,경상남도 창원시 마산합포구 구산면 아랫석곡길 26(구산면),128.563108761,35.115416394
수정남성경로당,경상남도 창원시 마산합포구 구산면 구산로 566-1(구산면),128.580282010,35.120612828
수정여성경로당,경상남도 창원시 마산합포구 구산면 구산로 566-1(구산면),128.580282010,35.120612828
신촌경로당,경상남도 창원시 마산합포구 구산면 구산신촌2길 45(구산면),128.585178190,35.095044509
실리도경로당,경상남도 창원시 마산합포구 구산면 실리섬길 13(구산면),128.637693019,35.063546127
심리경로당,경상남도 창원시 마산합포구 구산면 심리1길 40-1(구산면),128.607134330,35.069509044
안녕경로당,경상남도 창원시 마산합포구 구산면 안녕로 139(구산면),128.595177106,35.116850647
양평경로당,경상남도 창원시 마산합포구 구산면 양평길 59-17(구산면),128.585672306,35.083934090
옥계남성경로당,경상남도 창원시 마산합포구 구산면 옥계로 304(구산면),128.611475816,35.093083442
옥계여성경로당,경상남도 창원시 마산합포구 구산면 옥계로 304(구산면),128.611475816,35.093083442
용호경로당,경상남도 창원시 마산합포구 구산면 윗용호길 9(구산면),128.597624339,35.071781243
욱곡남성경로당,경상남도 창원시 마산합포구 구산면 욱곡1길 19(구산면),128.557866682,35.096398822
욱곡여성경로당,경상남도 창원시 마산합포구 구산면 욱곡1길 19(구산면),128.557866682,35.096398822
원전경로당,경상남도 창원시 마산합포구 구산면 이순신로 701(구산면),128.630544241,35.068143474
유산경로당,경상남도 창원시 마산합포구 구산면 유산1길 11(구산면),128.556593095,35.130222517
유천경로당,경상남도 창원시 마산합포구 구산면 유천길 84(구산면),128.563516851,35.131432479
장구경로당,경상남도 창원시 마산합포구 구산면 장구길 24-35(구산면),128.564448913,35.080457764
하마전경로당,경상남도 창원시 마산합포구 구산면마전길 53(구산면),,
진동경로당,경상남도 창원시 마산합포구 진동면 성산길 56(진동면),128.488239518,35.114804446
진동서촌1구경로당,경상남도 창원시 마산합포구 진동면 진동시장길 24-21(진동면),128.487538375,35.114399036
고현경로당,경상남도 창원시 마산합포구 진동면 미더덕로 358-11(진동면),128.479843097,35.102625084
광암경로당,경상남도 창원시 마산합포구 진동면 광암해안길 6(진동면),128.497974972,35.104518232
동촌1구경로당,경상남도 창원시 마산합포구 진동면 문화마당길 11-14(진동면),128.489317274,35.112487875
서촌2구경로당,경상남도 창원시 마산합포구 진동면 서동촌길 2-9(진동면),128.486556934,35.112818345
서촌3구경로당,경상남도 창원시 마산합포구 진동면 서촌바다길 46(진동면),128.484157452,35.112810248
교동경로당,경상남도 창원시 마산합포구 진동면 교동3길 40-10(진동면),128.500980187,35.117412767
입곡경로당,경상남도 창원시 마산합포구 진동면 입곡길 319-12(진동면),128.517685464,35.136205715
죽전남성경로당,경상남도 창원시 마산합포구 진동면 죽전안담길 4(진동면),128.478068449,35.106151568
죽전여성경로당,경상남도 창원시 마산합포구 진동면 죽전안담길 4(진동면),128.478068449,35.106151568
신기경로당,경상남도 창원시 마산합포구 진동면 신기남산길 105(진동면),128.475506540,35.111916607
성산남자경로당,경상남도 창원시 마산합포구 진동면 성산안길 3(진동면),128.489163729,35.115185969
성산여자경로당,경상남도 창원시 마산합포구 진동면 성산안길 3(진동면),128.489163729,35.115185969
혜창아파트경로당,경상남도 창원시 마산합포구 진동면 요장1길 29(진동면),128.490930526,35.111649136
장기경로당,경상남도 창원시 마산합포구 진동면 미더덕로 311(진동면),128.476651754,35.099633890
건우아파트경로당,경상남도 창원시 마산합포구 진동면 서촌바다길 108(진동면),128.483160407,35.110818918
사동1구경로당,경상남도 창원시 마산합포구 진동면 사동길 110-5(진동면),128.480804260,35.118778752
동전경로당,경상남도 창원시 마산합포구 진동면 동전길 353-21(진동면),128.517951682,35.159514399
묵지경로당,경상남도 창원시 마산합포구 진동면 묵지길 155(진동면),128.529493766,35.159751013
새모실경로당,경상남도 창원시 마산합포구 진동면 새무실길 18(진동면),128.516727075,35.152711158
오산경로당,경상남도 창원시 마산합포구 진동면 오산3길 37-16(진동면),128.506065542,35.141692330
태봉경로당,경상남도 창원시 마산합포구 진동면 태봉1길 85-29(진동면),128.509639050,35.147117564
다구경로당,경상남도 창원시 마산합포구 진동면 다구1길 59-10(진동면),128.520219267,35.107537339
야촌경로당,경상남도 창원시 마산합포구 진동면 교동1길 18(진동면),128.494982001,35.119138553
도만경로당,경상남도 창원시 마산합포구 진동면 도만1길 42(진동면),128.531282114,35.118757093
요장1구경로당,경상남도 창원시 마산합포구 진동면 요장1길 83-5(진동면),128.493375792,35.111337342
주도경로당,경상남도 창원시 마산합포구 진동면 주도2길 22-66(진동면),128.504850984,35.099771087
동촌2구경로당,경상남도 창원시 마산합포구 진동면 동촌길 28(진동면),128.486487215,35.111640334
한일유엔아이@경로당,경상남도 창원시 마산합포구 진동면 진북산업로 58(진동면),128.489327479,35.120931768
양도경로당,경상남도 창원시 마산합포구 진동면 양도길 177-23(진동면),128.491474199,35.081696550
협성엠파이어@경로당,경상남도 창원시 마산합포구 진동면 진북산업로 55(진동면),128.486315877,35.119628751
동촌3구경로당,"경상남도 창원시 마산합포구 진동면 동촌길 185 (진동면,마산신화하니엘더마린)",128.488437847,35.111610220
귀정경로당,경상남도 창원시 마산합포구 진북면 귀정길 14,128.474339069,35.163201746
금산경로당,경상남도 창원시 마산합포구 진북면 학동로 403,128.450470270,35.145380728
내추경로당,경상남도 창원시 마산합포구 진북면 내추길 5,128.489995704,35.167958882
대티경로당,경상남도 창원시 마산합포구 진북면 대티1길 103-11,128.467395576,35.166560307
대평경로당,경상남도 창원시 마산합포구 진북면 대평길 46,128.464303876,35.128525009
대현경로당,경상남도 창원시 마산합포구 진북면 대현길 9,128.468507247,35.174803993
덕곡경로당,경상남도 창원시 마산합포구 진북면 덕곡덕기길 305-1,128.473470942,35.126952177
덕기경로당,경상남도 창원시 마산합포구 진북면 덕곡덕기길 87,128.483163789,35.124113407
동삼경로당,경상남도 창원시 마산합포구 진북면 동삼길 82,128.452533099,35.122793931
동촌남성경로당,경상남도 창원시 마산합포구 진북면 지산5길 59,128.468676148,35.115161707
동촌여성경로당,경상남도 창원시 마산합포구 진북면 지산5길 59,128.468676148,35.115161707
망곡경로당,경상남도 창원시 마산합포구 진북면 망곡길 150,128.483898146,35.143188462
부산경로당,경상남도 창원시 마산합포구 진북면 부산1길 83,128.464268271,35.138922840
부평경로당,경상남도 창원시 마산합포구 진북면 부평1길 61,128.481414837,35.149451166
서북동경로당,경상남도 창원시 마산합포구 진북면 학동로 614,128.433972120,35.156484200
서촌남성경로당,경상남도 창원시 마산합포구 진북면 지산1길 63-8,128.464992638,35.115195851
서촌여성경로당,경상남도 창원시 마산합포구 진북면 지산1길 63-8,128.464992638,35.115195851
성원아파트경로당,경상남도 창원시 마산합포구 진북면 지산2길 31,128.464231588,35.117169651
신촌경로당,경상남도 창원시 마산합포구 진북면 신촌마을길 2,128.476673075,35.134526761
연동경로당,경상남도 창원시 마산합포구 진북면 연동1길 41,128.486800664,35.137677431
영학(학동)경로당,경상남도 창원시 마산합포구 진북면 학동로 529,128.440043484,35.151187967
예곡경로당,경상남도 창원시 마산합포구 진북면 의림로 101,128.453540697,35.117733762
외추경로당,경상남도 창원시 마산합포구 진북면 추곡1길 94,128.478839457,35.156775458
이목남성경로당,경상남도 창원시 마산합포구 진북면 학동로 238,128.462817599,35.134874942
이목여성경로당,경상남도 창원시 마산합포구 진북면 학동로 238,128.462817599,35.134874942
인곡경로당,경상남도 창원시 마산합포구 진북면 의림로 244,128.446237818,35.128430840
인곡상경로당,경상남도 창원시 마산합포구 의림로 258-1,128.446656854,35.129850711
정곡경로당,경상남도 창원시 마산합포구 진북면 진북정곡길 267,128.437225128,35.126301045
정삼경로당,경상남도 창원시 마산합포구 진북면 정삼길 158,128.462274080,35.172087656
중촌경로당,경상남도 창원시 마산합포구 진북면 중촌길 6-3,128.470736649,35.171224311
율티경로당,경상남도 창원시 마산합포구 진전면 미더덕로 24,128.452854481,35.105662074
근곡경로당,경상남도 창원시 마산합포구 진전면 근곡1길 181,128.445911229,35.115302927
신기경로당,경상남도 창원시 마산합포구 진전면 진전신기길 5,128.448396794,35.108045968
임곡경로당,경상남도 창원시 마산합포구 진전면 임곡길 133,128.436010145,35.111613566
진목경로당,경상남도 창원시 마산합포구 진전면 진목길 42,128.439658409,35.107403847
대산경로당,경상남도 창원시 마산합포구 진전면 대산길 71,128.436328111,35.103751957
봉곡경로당,경상남도 창원시 마산합포구 진전면 봉곡길 16-7,128.418377281,35.110427107
도산경로당,경상남도 창원시 마산합포구 진전면 팔의사로 841-17,128.426649385,35.108377636
곡안경로당,경상남도 창원시 마산합포구 진전면 곡안1길 18,128.413815779,35.110192422
곡안부녀경로당,경상남도 창원시 마산합포구 진전면 곡안1길 18,128.413815779,35.110192422
동산경로당,경상남도 창원시 마산합포구 진전면  동산1길 59,128.394034473,35.119724314
동산여성경로당,경상남도 창원시 마산합포구 진전면 동산1길 51,128.393725389,35.119457422
양촌경로당,경상남도 창원시 마산합포구 진전면 팔의사로 390,128.385648991,35.124126566
개양경로당,경상남도 창원시 마산합포구 진전면 개양길 11,128.382424952,35.127955970
대정경로당,경상남도 창원시 마산합포구 진전면 의산삼일로 11,128.376491875,35.131051927
봉암경로당,경상남도 창원시 마산합포구 진전면 팔의사로 209,128.369075722,35.131331281
일암경로당,경상남도 창원시 마산합포구 진전면 일암1길 213,128.375112823,35.121937854
대방경로당,경상남도 창원시 마산합포구 진전면 적석산길 616,128.360890220,35.117583338
동대경로당,경상남도 창원시 마산합포구 진전면 오서로 19,128.416540279,35.103691591
동대부녀경로당,경상남도 창원시 마산합포구 진전면 오서로 7-1,128.416184617,35.102721009
문화마을경로당,경상남도 창원시 마산합포구 진전면 오서1길 14,128.416812512,35.100918944
서대경로당,경상남도 창원시 마산합포구 진전면 대실로 120,128.414986356,35.101877897
회동경로당,경상남도 창원시 마산합포구 진전면 탑동길 57,128.406036822,35.098036386
탑동경로당,경상남도 창원시 마산합포구 진전면 탑동길 246,128.398320041,35.095831067
월안경로당,경상남도 창원시 마산합포구 진전면 월안2길 11,128.409056496,35.105893437
호산경로당,경상남도 창원시 마산합포구 진전며뉴 호산정달로 59,,
이명경로당,경상남도 창원시 마산합포구 진전면 이명1길 94,128.446758177,35.092404977
정달경로당,경상남도 창원시 마산합포구 진전면 호산정달로 151-29,128.438941855,35.098215157
창포경로당,경상남도 창원시 마산합포구 진전면 회진로 1493-1,128.459650728,35.089920484
창포여성경로당,경상남도 창원시 마산합포구 진전면 회진로 1493-1,128.459650728,35.089920484
시락경로당,경상남도 창원시 마산합포구 진전면 회진로 1016-6,128.440037204,35.072073950
정곡경로당,경상남도 창원시 마산합포구 진전면 진전정곡길 23-2,128.425520159,35.060227612
소포경로당,경상남도 창원시 마산합포구 진전면 회진로 1140,128.452005952,35.074778810
상평경로당,경상남도 창원시 마산합포구 진전면 상평음달길 2,128.401011055,35.165021364
미천경로당,경상남도 창원시 마산합포구 진전면 미천1길 68,,
상촌경로당,경상남도 창원시 마산합포구 진전면 금암상촌길 88,128.391238028,35.137175118
의산경로당,경상남도 창원시 마산합포구 진전면 의산삼일로 65-1,128.374509858,35.135434792
의산부녀경로당,경상남도 창원시 마산합포구 진전면 의산삼일로 65-1,128.374509858,35.135434792
중촌경로당,경상남도 창원시 마산합포구 진전면 금암중촌길 43,128.383899407,35.139130955
거락경로당,경상남도 창원시 마산합포구 진전면 거락2길 6,128.372162908,35.141590922
원산경로당,경상남도 창원시 마산합포구 진전면 의산삼일로 248,128.370125781,35.151289657
대량경로당,경상남도 창원시 마산합포구 진전면 대량1길 98,128.376244127,35.161695797
옥방경로당,경상남도 창원시 마산합포구 진전면 옥방샛담길 55,128.377892779,35.175741776
옥방내동경로당,경상남도 창원시 마산합포구 진전면 옥방내동길 195,128.389755762,35.179381950
둔덕경로당,경상남도 창원시 마산합포구 진전면 둔덕안담길 27,128.389459185,35.191970838
예곡경로당,경상남도 창원시 마산합포구 예곡길 194-4,128.546933091,35.169166160
두릉경로당,경상남도 창원시 마산합포구 두릉길 192,128.533621743,35.177312614
우산경로당,경상남도 창원시 마산합포구 우산길 19,128.554118868,35.158354745
옥동경로당,경상남도 창원시 마산합포구 옥동길 79-10,128.547832223,35.152668966
묘촌남성경로당,경상남도 창원시 마산합포구 묘촌1길 88,128.557039363,35.138347774
묘촌여성경로당,경상남도 창원시 마산합포구 묘촌1길 88,128.557039363,35.138347774
덕동남성경로당,경상남도 창원시 마산합포구 덕동길 126,128.575356337,35.138496005
덕동여성경로당,경상남도 창원시 마산합포구 덕동길 126,128.575356337,35.138496005
율곡경로당,경상남도 창원시 마산합포구 예곡길 63,128.552635323,35.167374635
중흥1차경로당,경상남도 창원시 마산합포구 현동4길 20,128.551246790,35.150805018
창원현동LH아파트경로당,경상남도 창원시 마산합포구 현동3길 1,128.554074871,35.152427172
그린경로당,경상남도 창원시 마산합포구 묘촌1길 28,128.556793363,35.142924154
현동중흥S클래스프라디움3차경로당,경상남도 창원시 마산합포구 현동1길 8,128.559718846,35.148002894
현동 코오롱하늘채아파트 경로당,"경상남도 창원시 마산합포구 현동9길 13 1층(현동,코오롱하늘채아파트)",128.557039665,35.145315786
가포제2남성경로당 ,경상남도 창원시 마산합포구 가포해안길 21(가포동),128.571872088,35.169130531
가포제2여성경로당,경상남도 창원시 마산합포구 가포해안길 21(가포동),128.571872088,35.169130531
건화맨션경로당,"경상남도 창원시 마산합포구 가포로  176-45  (가포동, 건화그린맨션)",128.563036585,35.170122568
가포LH아파트1단지경로당,경상남도 창원시 마산합포구 가포본동5길 37,128.583708803,35.158102936
월영대내경로당,경상남도 창원시 마산합포구 월영북3길 29-36 (월영동),128.555901766,35.181576684
새동네남성경로당,경상남도 창원시 마산합포구 월영서9길 5 (월영동),128.556183207,35.176242405
새동네여성경로당,경상남도 창원시 마산합포구 월영서9길 5 (월영동),128.556183207,35.176242405
월영남성경로당,경상남도 창원시 마산합포구 월영서3길 15 (월영동),128.555855151,35.177265892
월영여성경로당,경상남도 창원시 마산합포구 월영서3길 15 (월영동),128.555855151,35.177265892
해운경로당(남자),경상남도 창원시 마산합포구 가포로 63 (해운동),128.563757867,35.177850121
해운경로당(여자),경상남도 창원시 마산합포구 가포로 63 (해운동),128.563757867,35.177850121
대내주공아파트경로당,"경상남도 창원시 마산합포구 월영북15길 9 (대내동,대내주공아파트)",128.558095966,35.181712555
월영라이프경로당,"경상남도 창원시 마산합포구 월영서3길 95 (월영동,월영라이프타운)",128.554283570,35.176780594
화인아트빌라남자경로당,"경상남도 창원시 마산합포구 밤밭고개로 371 (월영동,화인아트빌라)",128.555743983,35.175510983
화인아트빌라여자경로당,"경상남도 창원시 마산합포구 밤밭고개로 371 (월영동,화인아트빌라)",128.555743983,35.175510983
월영SK오션뷰경로당,경상남도 창원시 마산합포구 월영남12길 12(월영동 월영SK오션뷰아파트),128.559900095,35.176215689
두산1차아파트남자경로당,"경상남도 창원시 마산합포구 월영동6길 35 (해운동,두산1차아파트)",128.561907761,35.178725371
두산1차아파트여자경로당,"경상남도 창원시 마산합포구 월영동6길 35 (해운동,두산1차아파트)",128.561907761,35.178725371
대동씨코아경로당,"경상남도 창원시 마산합포구 월영동로 8 (해운동,대동씨코아아파트)",128.562430039,35.179838238
평화골든타워경로당,"경상남도 창원시 마산합포구 월영동남로 18 (해운동,평화골든타워)",128.565983230,35.177901219
한일비치맨션경로당,"경상남도 창원시 마산합포구 월영동남로 22 (해운동,한일비치맨션)",128.567022207,35.177804007
해오름아파트경로당,"경상남도 창원시 마산합포구 월영동11길 57(해운동,해오름아파트)",128.566465571,35.178741980
두산2차아파트남성경로당,"경상남도 창원시 마산합포구 월영동로 19 (해운동,두산2차아파트)",128.563861609,35.179518080
두산2차아파트여성경로당,"경상남도 창원시 마산합포구 월영동로 19 (해운동,두산2차아파트)",128.563861609,35.179518080
두산3차아파트남성경로당,"경상남도 창원시 마산합포구 월영동11길 42 (해운동,두산3차아파트)",128.564651275,35.179830336
두산3차아파트여성경로당,"경상남도 창원시 마산합포구 월영동11길 42 (해운동,두산3차아파트)",128.564651275,35.179830336
해운31통해운한백경로당,"경상남도 창원시 마산합포구 월영동13길 14 (해운동,해운한백아파트)",128.562842181,35.181494390
경민시티빌경로당,"경상남도 창원시 마산합포구 해안대로 91 (해운동,경민시티빌아파트)",128.563596554,35.183730710
해운동성아파트경로당,"경상남도 창원시 마산합포구 월영동16길 17 (해운동,해운동성아파트)",128.563705888,35.182953833
동아1차아파트경로당,"경상남도 창원시 마산합포구 월영남로 43 (월영동,동아1차아파트)",128.559050987,35.175532881
대동아파트경로당,"경상남도 창원시 마산합포구 월영남로 42 (월영동,대동아파트)",128.558549525,35.174856800
월영현대아파트경로당,"경상남도 창원시 마산합포구 월영마을로 12 (월영동,월영현대아파트)",128.557373541,35.174894546
현대산업1차아파트경로당,"경상남도 창원시 마산합포구 월영마을로 7 (월영동,현대산업1차아파트)",128.558363213,35.172942207
동아2차아파트남성경로당,"경상남도 창원시 마산합포구 월영마을로 29 (월영동,동아2차아파트)",128.558464487,35.171857269
동아2차아파트여성경로당,"경상남도 창원시 마산합포구 월영마을로 29 (월영동,동아2차아파트)",128.558464487,35.171857269
현대산업2차아파트경로당,"경상남도 창원시 마산합포구 월영마을로 52 (월영동,현대산업2차아파트)",128.558765252,35.171204466
월영현대3차경로당,"경상남도 창원시 마산합포구 월영마을로 32 (월영동,월영현대3차아파트)",128.556365484,35.172396620
월영새동네경로당,경상남도 창원시 마산합포구 월영남10길 23-3 (월영동),128.556963855,35.175412277
마린애시앙경로당,"경상남도 창원시 마산합포구 가포순환로33(월영동,마린애시앙아파트)",,
대창경로당,경상남도 창원시 마산합포구 문화서6길 32 (대창동),128.554116867,35.187044680
대창여성경로당,경상남도 창원시 마산합포구 문화서6길 32 (대창동),128.554116867,35.187044680
당산경로당,경상남도 창원시 마산합포구 문화남9길 11 (화영동),128.552609740,35.185175592
당산여성경로당,경상남도 창원시 마산합포구 문화남9길 11 (화영동),128.552609740,35.185175592
창포경로당,경상남도 창원시 마산합포구 문화동10길 9-1 (창포동2가),128.560506255,35.183657831
창포여성경로당,경상남도 창원시 마산합포구 문화동10길 9-1 (창포동2가),128.560506255,35.183657831
월남경로당,경상남도 창원시 마산합포구 문화북5길 10-1 (평화동),128.558762006,35.186346556
월남여성경로당,경상남도 창원시 마산합포구 문화북5길 10-1 (평화동),128.558762006,35.186346556
창포동성아파트경로당,"경상남도 창원시 마산합포구 문화동7길 25 (창포동1가, 동성아파트)",128.561847704,35.184450713
창포경남맨션경로당,"경상남도 창원시 마산합포구 문화동14길 68 (창포동2가, 창포경남아파트)",128.561607131,35.183357015
경민아파트경로당,"경상남도 창원시 마산합포구 문화동14길 46 (창포동3가,창포경민아파트)",128.561767165,35.182123211
창포한백아파트경로당,"경상남도 창원시 마산합포구 문화동15길 95 (창포동1가, 창포한백아파트)",128.562731257,35.184416015
월영한백아파트경로당,"경상남도 창원시 마산합포구 문화서2길 5 (월영동, 월영한백아파트)",128.553273993,35.186237927
중앙남성경로당,경상남도 창원시 마산합포구 중앙남5길 40 (신흥동),128.564246147,35.193710901
중앙여성경로당,경상남도 창원시 마산합포구 중앙남5길 40 (신흥동),128.564246147,35.193710901
신월남성경로당,경상남도 창원시 마산합포구 반월서7길 52 (신월동),128.559459460,35.193794991
신월여성경로당,경상남도 창원시 마산합포구 반월서7길 52 (신월동),128.559459460,35.193794991
반월시장경로당,경상남도 창원시 마산합포구 반월북2길 13-1 (반월동),128.561347126,35.189768045
반월월포남성경로당,경상남도 창원시 마산합포구 반월동5길 9-1(중앙동1가),128.563397187,35.190046300
반월월포여성경로당,경상남도 창원시 마산합포구 반월동5길 9-1(중앙동1가),128.563397187,35.190046300
벽산블루밍경로당,경상남도 창원시 마산합포구 3.15대로 154 (월포동),128.565836366,35.191915188
월포경동메르빌남자경로당,경상남도 창원시 마산합포구 중앙동3길 22 (월포동),128.568105355,35.194395172
월포경동메르빌여성경로당,경상남도 창원시 마산합포구 중앙동3길 22 (월포동),128.568105355,35.194395172
중앙경동메르빌아파트경로당,"경상남도 창원시 마산합포구 중앙동3길 10 (중앙동2가,경동메르빌2차아파트)",128.567487788,35.194886340
우방(아)경로당,"경상남도 창원시 마산합포구 중앙동3길 17 (중앙동2가,중앙우방아파트)",128.567855898,35.195014692
신우희가로베스트경로당,"경상남도 창원시 마산합포구 중앙북1길 19 (중앙동3가,신우희가로베스트)",128.568824674,35.197907332
신한토탈아파트경로당,"경상남도 창원시 마산합포구 장군천로 38 (신흥동,신한토탈아파트)",128.566046276,35.196204734
대동한마음아파트경로당,"경상남도 창원시 마산합포구 중앙남8길 55 (완월동,대동한마음아파트)",128.563164870,35.195123458
혜성미경로당,경상남도 창원시 마산합포구 중아북2길17. 102호,,
상춘남성경로당,경상남도 창원시 마산합포구 완월북5길 28,128.559540109,35.198811065
상춘여성경로당,경상남도 창원시 마산합포구 완월북5길 28,128.559540109,35.198811065
완월남성경로당,경상남도 창원시 마산합포구 마산합포구 완월동5길 15,128.564588864,35.197699588
완월여성경로당,경상남도 창원시 마산합포구 마산합포구 완월동5길 15,128.564588864,35.197699588
학산남성경로당,경상남도 창원시 마산합포구 완월남1길 50,128.559347190,35.196785745
학산여성경로당,경상남도 창원시 마산합포구 완월남1길 50,128.559347190,35.196785745
서광1차A경로당,경상남도 창원시 마산합포구 고운로 168,128.562699778,35.196764829
화인A경로당,경상남도 창원시 마산합포구 완월남8길 16,128.557666183,35.195627115
청구A경로당,경상남도 창원시 마산합포구 완월남로 45,128.557016502,35.197276577
서광2차A경로당,경상남도 창원시 마산합포구 완월남로 54,128.556843531,35.197856052
자산남성경로당,"경상남도 창원시 마산합포구 자산동9길42, 2층(자산동)",,
자산여성경로당,"경상남도 창원시 마산합포구 자산동9길42, 1층(자산동)",,
상봉남성경로당,"경상남도 창원시 마산합포구 자산북4길18, 2층(자산동)",,
상봉여성경로당,"경상남도 창원시 마산합포구 자산북4길18, 1층(자산동)",,
학봉남성경로당,"경상남도 창원시 마산합포구 자산서5길51, 2층(자산동)",,
학봉여성경로당,"경상남도 창원시 마산합포구 자산서5길51, 1층(자산 동) ",,
자산아파트경로당,경상남도 창원시 마산합포구 자산서14길26(자산동),128.565724404,35.201465083
우성아파트경로당,경상남도 창원시 마산합포구 무학로378(자산동),128.559770466,35.203966838
한우아파트12동경로당,경상남도 창원시 마산합포구 자산솔밭로52(자산동),128.559405324,35.202863888
한우아파트356동경로당,경상남도 창원시 마산합포구 자산서11길6(자산동),128.563458469,35.202149679
한우아파트910동경로당,경상남도 창원시 마산합포구 자산서12길3(자산동),128.565497467,35.202740226
한우아파트1112동경로당,경상남도 창원시 마산합포구 자산서13길29(자산동),128.560708127,35.202004263
팔도아파트경로당,경상남도 창원시 마산합포구 자산삼거리로97(자산동),128.563448940,35.206863040
성호남성경로당,경상남도 창원시 마산합포구 성호서5길 13(성호동),128.570220770,35.208532065
성호여성경로당,경상남도 창원시 마산합포구 성호서5길 13(성호동),128.570220770,35.208532065
추산남성경로당,"경상남도 창원시 마산합포구 문신길 169(추산동,추산아파트)",128.570194984,35.207024481
추산여성경로당,"경상남도 창원시 마산합포구 문신길 169(추산동,추산아파트)",128.570194984,35.207024481
신추산남성경로당,경상남도 창원시 마산합포구 성호동2길 48(추산동),128.572305109,35.209448022
신추산여성경로당,경상남도 창원시 마산합포구 성호동2길 48(추산동),128.572305109,35.209448022
오동동남성경로당,경상남도 창원시 마산합포구 오동동10길 81-1(오동동),128.582545298,35.207188907
오동동여성경로당,경상남도 창원시 마산합포구 오동북17길 1(오동동),128.578044998,35.207666414
중성동여성경로당,경상남도 창원시 마산합포구 오동서17길 27(중성동),128.573327869,35.209425051
기산아파트여성경로당,"경상남도 창원시 마산합포구 오동동14길 29, 3층(오동동,기산아파트)",128.580826058,35.205256941
마린경로당,"경상남도 창원시 마산합포구 오동동14길67(오동동,중앙마린파이브아파트)",128.582719822,35.206186289
동서남성경로당,경상남도 창원시 마산합포구 어시장8길 77(남성동),128.576741169,35.202650194
동서여성경로당,경상남도 창원시 마산합포구 어시장8길 77(남성동),128.576741169,35.202650194
서성경로당,경상남도 창원시 마산합포구 동서북2길 11 (서성동),128.572787711,35.203808451
센트럴아파트남성경로당,"경상남도 창원시 마산합포구 서성로 19 (신포동1가, 센트럴아파트)",128.570419791,35.199071323
센트럴아파트여성경로당,"경상남도 창원시 마산합포구 서성로 19 (신포동1가, 센트럴아파트)",128.570419791,35.199071323
부림경로당,경상남도 창원시 마산합포구 동서서4길 6-26 (부림동),128.572409931,35.205896749
신포경남경로당,"경상남도 창원시 마산합포구 동서남1길 25 (신포동2가, 경남신포맨션아파트)",128.569370291,35.201302439
마산만아이파크경로당,"경상남도 창원시 마산합포구 제2부두로 17 (신포동1가, 마산만아이파크아파트)",128.572048440,35.196406466
신포새롬미리내경로당,"경상남도 창원시 마산합포구 동서동3길 39 (신포동1가, 새롬미리내아파트)",128.571315225,35.199830998
교방남성경로당,경상남도 창원시 마산합포구 교방동 6길15,,
교방여성경로당,경상남도 창원시 마산합포구 교방동 1길84,,
교방장수경로당,경상남도 창원시 마산합포구 교방서 1길 35--1,128.564725618,35.213266167
무학산블루밍경로당,경상남도 창원시 마산합포구 노산서 18길 142,128.562010790,35.215645385
무학자이아파트경로당,경상남도 창원시 마산합포구 노산서 18길 19,128.569525479,35.215013138
북마산남성경로당,경상남도 창원시 마산합포구 노산북 1길12-2(1층),,
북마산여성경로당,경상남도 창원시 마산합포구 노산북 1길12-2(2층),,
서광경로당,경상남도 창원시 마산합포구 노산북 6길 22,128.572311322,35.213947610
회산여성경로당,경상남도 창원시 마산합포구 노산남 8길 2-29,128.570365965,35.214818245
교원경로당,경상남도 창원시 마산합포구 노산남 9길 14,128.570668845,35.212724072
상남경로당,경상남도 창원시 마산합포구 노산동 2길 18(1층),128.575316620,35.213105202
회남여성경로당,경상남도 창원시 마산합포구 노산동 2길 18(2층),128.575316620,35.213105202
롯데캐슬프리미어아파트경로당,경상남도 창원시 마산합포구 노산서 18길 80,128.566724770,35.215430961
상남남성경로당,경상남도 창원시 마산합포구 합포서7길 10 (상남동),128.576624503,35.210040606
상남여성경로당,경상남도 창원시 마산합포구 합포서7길 10 (상남동),128.576624503,35.210040606
용마남성경로당,경상남도 창원시 마산합포구 회원천북길 461 (산호동),128.580359695,35.209623308
용마여성경로당,경상남도 창원시 마산합포구 회원천북길 461 (산호동),128.580359695,35.209623308
숲골남성경로당,경상남도 창원시 마산합포구 합포북20길 23 (산호동),128.578132175,35.213941370
숲골여성경로당,경상남도 창원시 마산합포구 합포북20길 23 (산호동),128.578132175,35.213941370
국제비치타운경로당,"경상남도 창원시 마산합포구 합포동5길 22(산호동,국제비치타운)",128.584843093,35.209482524
무학맨션경로당,"경상남도 창원시 마산합포구 회원천북길 545(산호동,무학맨션)",128.584072063,35.207846458
무학경로당,경상남도 창원시 마산합포구 합포동4길 6-3,128.583934148,35.207839601
진웅네스빌경로당,"경상남도 창원시 마산합포구 합포남2길 11(산호동, 진웅네스빌)",128.582490164,35.209761720
산호남성경로당,경상남도 창원시 마산합포구 산호북10길 5-1(산호동),128.583231222,35.218708791
산호여성경로당,경상남도 창원시 마산합포구 산호북10길 5-1(산호동),128.583231222,35.218708791
산호중앙남성경로당,경상남도 창원시 마산합포구 산호남8길 45(산호동),128.580635344,35.215209638
산호중앙여성경로당,경상남도 창원시 마산합포구 산호남8길 45(산호동),128.580635344,35.215209638
산호현대남경로당,경상남도 창원시 마산합포구 산호서2길 46(산호동),128.578037359,35.217101589
산호현대여경로당,경상남도 창원시 마산합포구 산호서2길 46(산호동),128.578037359,35.217101589
가고파경로당,경상남도 창원시 마산합포구 산호북4길 60(산호동),128.585153425,35.218622323
합포남성경로당,경상남도 창원시 마산합포구 산호동6길48(산호동),128.586956960,35.214283770
합포여성경로당,경상남도 창원시 마산합포구 산호동6길48(산호동),128.586956960,35.214283770
삼성타운경로당,경상남도 창원시 마산합포구 산호북1길 15(산호동),128.583979603,35.217238392
대한아파트경로당,경상남도 창원시 마산합포구 산호북5길 26(산호동),128.585769258,35.219994862
경동리인아파트경로당,경상남도 창원시 마산합포구 산호동4길 6(산호동),128.588928378,35.216476549
가고파아파트경로당,"경상남도 창원시 창원시 마산회원구 내서읍 상곡로 35,(가고파아파트) ",128.501318411,35.242650061
감나무골경로당,경상남도 창원시 창원시 마산회원구 내서읍 감나무골길 187 ,128.510839688,35.193499663
감천남성경로당,경상남도 창원시 창원시 마산회원구 내서읍 감천로 78 ,128.517217728,35.205357477
감천여성경로당,경상남도 창원시 창원시 마산회원구 내서읍 감천로 78 ,128.517217728,35.205357477
구미경로당,경상남도 창원시 창원시 마산회원구 내서읍 구미길 47 ,128.521439074,35.253005850
구슬골경로당,경상남도 창원시 창원시 마산회원구 내서읍 윗구슬길 56-4 ,128.531469295,35.241164133
국제아파트경로당,"경상남도 창원시 창원시 마산회원구 내서읍 호계본동로 38,(호계국제아파트) ",128.521780229,35.263730469
내서읍경로당,경상남도 창원시 창원시 마산회원구 내서읍 중리 상곡로 124 ,128.511397328,35.251235018
대동다숲아파트경로당,"경상남도 창원시 창원시 마산회원구 내서읍 삼계2길 31,(삼계대동다숲아파트) ",128.503680376,35.229765791
대동이미지1단지아파트경로당,"경상남도 창원시 창원시 마산회원구 내서읍 광려로 28,(삼계대동이미지1차아파트) ",128.501291263,35.222695944
대동이미지1단지아파트남성경로당,"경상남도 창원시 창원시 마산회원구 내서읍 광려로 28,(삼계대동이미지1차아파트) ",128.501291263,35.222695944
대동이미지2단지경로당,"경상남도 창원시 창원시 마산회원구 내서읍 광려로 29,(삼계대동이미지2차아파트) ",128.503455999,35.222984322
더푸른아파트경로당,"경상남도 창원시 창원시 마산회원구 내서읍 삼계10길 22,(삼계1주공아파트) ",128.502555444,35.236109184
동신1차아파트경로당,"경상남도 창원시 창원시 마산회원구 내서읍 중리상곡로 114,(동신아파트1차) ",128.510881025,35.249452569
동신2차아파트경로당,"경상남도 창원시 창원시 마산회원구 내서읍 중리상곡로 134,(동신2차아파트) ",128.511609282,35.251551212
백로아파트경로당,"경상남도 창원시 창원시 마산회원구 내서읍 중리상곡로 20-1,(중리백로아파트) ",128.505628736,35.244169207
삼계2주공아파트경로당,경상남도 창원시 창원시 마산회원구 내서읍 삼계2길 24(삼계2주공아파트) ,128.503674293,35.229298642
삼계남성경로당,"경상남도 창원시 창원시 마산회원구 내서읍 삼계숲길 3-1,삼계회관 ",128.500238878,35.231342167
삼계대동아파트경로당,"경상남도 창원시 창원시 마산회원구 내서읍 삼계5길 30,(삼계대동아파트) ",128.502405664,35.229642094
삼계여성경로당,"경상남도 창원시 창원시 마산회원구 내서읍 삼계숲길 3-1,삼계회관 ",128.500238878,35.231342167
삼계현대아파트경로당,"경상남도 창원시 창원시 마산회원구 내서읍 삼풍로 82,(삼계현대아파트) ",128.502394892,35.234071380
삼계화성아파트경로당,"경상남도 창원시 창원시 마산회원구 내서읍 삼계8길 31,(화성아파트) ",128.500574307,35.233255831
삼정경로당,경상남도 창원시 창원시 마산회원구 내서읍 중리공단로 227-30 ,128.517454480,35.249349306
상곡1주공아파트경로당,"경상남도 창원시 창원시 마산회원구 내서읍 상곡로 43,상곡주공아파트1단지 ",128.500658713,35.243664411
상곡2주공아파트경로당,"경상남도 창원시 창원시 마산회원구 내서읍 상곡로 67,상곡주공아파트2단지 ",128.499380832,35.243415348
상곡경로당,경상남도 창원시 창원시 마산회원구 내서읍 상곡안길 33-3 ,128.502219958,35.243575372
상동경로당,경상남도 창원시 창원시 마산회원구 내서읍 상동길 7 ,128.506867194,35.245921388
서광2차아파트경로당,"경상남도 창원시 창원시 마산회원구 내서읍 호계안길 91, 서광2차아파트 ",128.519886023,35.257470192
서진아파트경로당,"경상남도 창원시 창원시 마산회원구 내서읍 경남대로 1019,(서진아파트) ",128.504527680,35.240970436
수곡경로당,경상남도 창원시 창원시 마산회원구 내서읍 수곡로 92-1 ,128.500620029,35.270784552
숲속마을주공3단지아파트경로당,"경상남도 창원시 창원시 마산회원구 내서읍 삼계본동1길 86,(숲속마을주공3단지 아파트) ",128.496603473,35.231820098
숲속마을주공4단지아파트경로당,"경상남도 창원시 창원시 마산회원구 내서읍 숲속로 6,(숲속마을주공4단지아파트) ",128.496920434,35.231073252
숲속마을주공5단지아파트경로당,"경상남도 창원시 창원시 마산회원구 내서읍 숲속로 30,(숲속마을주공5단지아파트) ",128.496431218,35.227775575
숲속마을주공6단지아파트경로당,"경상남도 창원시 창원시 마산회원구 내서읍 숲속로 27,(숲속마을주공6단지아파트) ",128.497487846,35.229278705
신감경로당,경상남도 창원시 창원시 마산회원구 내서읍 신감길 25 ,128.510934468,35.204131997
신목경로당,경상남도 창원시 창원시 마산회원구 내서읍 신목길 19-1 ,128.496321873,35.191966496
신평경로당,경상남도 창원시 창원시 마산회원구 내서읍 신평로 35 ,128.510199278,35.239655724
안계경로당,경상남도 창원시 창원시 마산회원구 내서읍 삼계로 194 ,128.486766166,35.237773755
안곡경로당,경상남도 창원시 창원시 마산회원구 내서읍 송평로 411 ,128.535350994,35.262498526
안성경로당,경상남도 창원시 창원시 마산회원구 내서읍 안성로 150 ,128.551232789,35.265147739
옥정경로당,경상남도 창원시 창원시 마산회원구 내서읍 옥정1길 15 ,128.522421936,35.249097509
용담경로당,경상남도 창원시 창원시 마산회원구 내서읍 용담로 177 ,128.499332977,35.264408901
우리경로당,경상남도 창원시 창원시 마산회원구 내서읍 송평로 390 ,128.536998677,35.261240132
원계경로당,경상남도 창원시 창원시 마산회원구 내서읍 원계증산길 78 ,128.509123897,35.230758897
원계대동다숲아파트경로당,"경상남도 창원시 창원시 마산회원구 내서읍 광려천남로 267,(원계대동다숲아파트) ",128.506394065,35.229615627
장미아파트경로당,"경상남도 창원시 창원시 마산회원구 내서읍 중리상곡로 18,(장미아파트) ",128.505361988,35.242810729
전안경로당,경상남도 창원시 창원시 마산회원구 내서읍 전안길 23 ,128.504700000,35.215265709
죽암경로당,경상남도 창원시 창원시 마산회원구 내서읍 죽암로 19-1 ,128.509792646,35.255751114
중리남성경로당,경상남도 창원시 창원시 마산회원구 내서읍 중리본동길 6 ,128.511407424,35.252202101
중리여성경로당,경상남도 창원시 창원시 마산회원구 내서읍 중리 상곡로 125 ,128.511160312,35.251375342
중리현대아파트경로당,경상남도 창원시 창원시 마산회원구 내서읍 호원로 186-2 (중리현대아파트) ,128.521709120,35.251042138
코오롱1차아파트경로당,경상남도 창원시 창원시 마산회원구 내서읍 호원로 361-3(코오롱타운아파트) ,128.527812518,35.267765532
코오롱2차아파트경로당,"경상남도 창원시 창원시 마산회원구 내서읍 호원로 359,(코오롱하늘채2차아파트) ",128.523386700,35.264445163
평성남성경로당,경상남도 창원시 창원시 마산회원구 내서읍 송평로 361 ,128.538280820,35.258841174
평성여성경로당,경상남도 창원시 창원시 마산회원구 내서읍 송평로 361 ,128.538280820,35.258841174
한우리경로당,"경상남도 창원시 창원시 마산회원구 내서읍 삼계1길 32,(한우리아파트1단지) ",128.504300799,35.228079313
한우리2차아파트경로당,"경상남도 창원시 창원시 마산회원구 내서읍 삼계1길 18,(한우리아파트2단지) ",128.504617424,35.226715307
한일유엔아이아파트경로당,"경상남도 창원시 창원시 마산회원구 내서읍 광려천남로 245,(한일유앤아이오르젠아파트) ",128.506406156,35.231204880
한주아파트경로당,"경상남도 창원시 창원시 마산회원구 내서읍 함마대로 2805-70,(한주아파트) ",128.520484726,35.248607842
현대성우아파트경로당,경상남도 창원시 창원시 마산회원구 내서읍 광려천북로 58(성우아파트) ,128.519063521,35.255297122
호계남성경로당,경상남도 창원시 창원시 마산회원구 내서읍 호계본동2길 15-4 ,128.519679508,35.266123672
호계여성경로당,경상남도 창원시 창원시 마산회원구 내서읍 호계본동2길 15-4 ,128.519679508,35.266123672
화인태양아파트경로당,"경상남도 창원시 창원시 마산회원구 내서읍 광려천북로 208,(화인태양맨션) ",128.523909925,35.268288148
회원1동남성경로당,경상남도 창원시 창원시 마산회원구 회원동3길8(회원동),128.562993649,35.218326159
회원1동여성경로당,경상남도 창원시 창원시 마산회원구 회원동3길8(회원동),128.562993649,35.218326159
한효경로당,"경상남도 창원시 창원시 마산회원구 회원동3길38(회원동,한효아파트)",128.571143980,35.217736928
이산남성경로당,경상남도 창원시 창원시 마산회원구 회원동32길8(회원동),128.562280413,35.217289771
이산여성경로당,경상남도 창원시 창원시 마산회원구 회원동32길8(회원동),128.562280413,35.217289771
봉오남성경로당,경상남도 창원시 창원시 마산회원구 회원동15길 83(회원동),128.571784156,35.222687081
봉오여성경로당,경상남도 창원시 창원시 마산회원구 회원동15길 83(회원동),128.571784156,35.222687081
육호경로당,경상남도 창원시 창원시 마산회원구 회원동29길39(회원동),128.575944937,35.217690129
회봉경로당,경상남도 창원시 창원시 마산회원구 회원북21길 54-1(회원동) ,128.566461779,35.220970668
화란여성경로당,경상남도 창원시 창원시 마산회원구 회원서4길 25(회원동) ,128.559421363,35.218789153
화란남성경로당,경상남도 창원시 창원시 마산회원구 회원서4길 25(회원동) ,128.559421363,35.218789153
봉화여성경로당,경상남도 창원시 창원시 마산회원구 회원북20길 14(회원동) ,128.566975248,35.220398512
봉화남성경로당,경상남도 창원시 창원시 마산회원구 회원북20길 14(회원동) ,128.566975248,35.220398512
무학경로당,경상남도 창원시 창원시 마산회원구 회원서12길 14(회원동) ,128.559857166,35.216624873
팔거리거점경로당,경상남도 창원시 창원시 마산회원구 회원북25길 19(회원동) ,128.563525599,35.219663222
연계마을여성경로당,경상남도 창원시 창원시 마산회원구 앵지밭골3길 9 (회원동) ,128.557847368,35.220737618
연계마을남성경로당,경상남도 창원시 창원시 마산회원구 앵지밭골3길 9 (회원동) ,128.557847368,35.220737618
회원2동제1경로당,경상남도 창원시 창원시 마산회원구 회원남32길 35 ,128.562442187,35.218640780
e편한세상1단지아파트경로당,경상남도 창원시 창원시 마산회원구 회원북13길 20,128.569984820,35.222036499
e편한세상2단지아파트경로당,경상남도 창원시 창원시 마산회원구 회원남로 65,128.569503500,35.219400844
성황남성경로당,경상남도 창원시 창원시 마산회원구 석전서1길 13 ,128.566976991,35.229123276
성황여성경로당,경상남도 창원시 창원시 마산회원구 석전서1길 13 ,128.566976991,35.229123276
근주경로당,경상남도 창원시 창원시 마산회원구 석전북23길 9 ,128.568984179,35.230417134
봉화남성경로당,경상남도 창원시 창원시 마산회원구 석전서9길 140 ,128.569149958,35.225625360
봉화여성경로당,경상남도 창원시 창원시 마산회원구 석전서9길 140 ,128.569149958,35.225625360
장수남성경로당,경상남도 창원시 창원시 마산회원구 석전남9길 50-1 ,128.572427798,35.227059568
장수여성경로당,경상남도 창원시 창원시 마산회원구 석전남9길 50-1 ,128.572427798,35.227059568
일우경로당,경상남도 창원시 창원시 마산회원구 석전남23길 6 ,128.570984151,35.226773002
동산남성경로당,경상남도 창원시 창원시 마산회원구 석전북2길 2 ,128.572474741,35.232826654
동산여성경로당,경상남도 창원시 창원시 마산회원구 석전북2길 2 ,128.572474741,35.232826654
역전남성경로당,경상남도 창원시 창원시 마산회원구 석전동13길 15 ,128.577302934,35.233248934
역전여성경로당,경상남도 창원시 창원시 마산회원구 석전북13길 15 ,128.570098404,35.233171113
북성여성경로당,경상남도 창원시 창원시 마산회원구 석전북7길 8-21 ,128.568269818,35.232710666
중앙남성경로당,경상남도 창원시 창원시 마산회원구 석전동3길 50 ,128.572872409,35.230515808
중앙여성경로당,경상남도 창원시 창원시 마산회원구 석전동3길 50 ,128.572872409,35.230515808
대동피렌체아파트,경상남도 창원시 창원시 마산회원구 양덕옛1길 37 ,128.574623602,35.226836675
메트로시티석전경로당,"경상남도 창원시 창원시 마산회원구 석전남8길 40,109동 ",128.571137956,35.228466304
회성제1남성경로당,경상남도 창원시 창원시 마산회원구 회성시장1길 36(회성동),128.559454878,35.232010732
회성제1여성경로당,경상남도 창원시 창원시 마산회원구 회성시장1길 36(회성동),128.559454878,35.232010732
회성제2남성경로당,경상남도 창원시 창원시 마산회원구 회성남17길 22-10(회성동),128.563304939,35.231068994
회성제2여성경로당,경상남도 창원시 창원시 마산회원구 회성남17길 22-10(회성동),128.563304939,35.231068994
회성제3남성경로당,경상남도 창원시 창원시 마산회원구 회성동8길 22(회성동),128.563955401,35.234023012
회성제3여성경로당,경상남도 창원시 창원시 마산회원구 회성동8길 22(회성동),128.563955401,35.234023012
광명촌경로당,경상남도 창원시 창원시 마산회원구 회성동9길 16(회성동),128.565365540,35.234166116
두곡경로당,경상남도 창원시 창원시 마산회원구 두곡길 29-14(두척동),128.547713310,35.238318791
두척경로당,경상남도 창원시 창원시 마산회원구 두척1길 33(두척동),128.541701576,35.237100895
송정경로당,경상남도 창원시 창원시 마산회원구 송평로 155(두척동),128.551262590,35.244349568
연동경로당,경상남도 창원시 창원시 마산회원구 회성북4길 13 ,128.559262543,35.235246160
양덕1동남성경로당,"경상남도 창원시 창원시 마산회원구 양덕북2길 38, 2층(양덕동) ",128.584458103,35.233090762
양덕1동여성경로당,"경상남도 창원시 창원시 마산회원구 양덕북2길 38, 1층(양덕동) ",128.584458103,35.233090762
남성사랑방쉼터경로당,"경상남도 창원시 창원시 마산회원구 양덕동13길 20, 2층(양덕동) ",128.586580155,35.230477273
여성사랑방쉼터경로당,"경상남도 창원시 창원시 마산회원구 양덕동13길 20, 1층(양덕동) ",128.586580155,35.230477273
양덕경남아파트경로당,"경상남도 창원시 창원시 마산회원구 양덕동17길 22(양덕동, 양덕경남아파트) ",128.591190333,35.234293989
서안양덕타운경로당,"경상남도 창원시 창원시 마산회원구 팔용로 60-3(양덕동, 서안양덕타운) ",128.588595416,35.234578888
신성미소지움아파트경로당,"경상남도 창원시 창원시 마산회원구 양덕북17길 73(양덕동, 신성미소지움아파트) ",128.584325956,35.233327171
제2경로당 남성분회 ,경상남도 창원시 창원시 마산회원구 양덕남5길 13-1(양덕동) ,128.584125712,35.229721152
제2경로당 여성분회 ,경상남도 창원시 창원시 마산회원구 양덕남5길 13-1(양덕동) ,128.584125712,35.229721152
구열경로당 남성분회 ,경상남도 창원시 창원시 마산회원구 산호천서길 159-3(양덕동) ,128.580609572,35.231227163
구열경로당 여성분회 ,경상남도 창원시 창원시 마산회원구 산호천서길 159-3(양덕동) ,128.580609572,35.231227163
양덕2동 삼각경로당 ,경상남도 창원시 창원시 마산회원구 양덕남8길 16(양덕동) ,128.586604273,35.222714416
탑골경로당 ,경상남도 창원시 창원시 마산회원구 양덕동2길 86-1(양덕동) ,128.588640374,35.225227109
한일타운1차 여성경로당 ,"경상남도 창원시 창원시 마산회원구 양덕옛2길 58(양덕동,한일타운1차아파트) ",128.579128121,35.231311409
한일타운1차 남성경로당 ,"경상남도 창원시 창원시 마산회원구 양덕옛2길 58(양덕동,한일타운1차아파트) ",128.579128121,35.231311409
한일타운2차 여성경로당 ,"경상남도 창원시 창원시 마산회원구 양덕로151(양덕동,한일타운2차아파트) ",128.582559924,35.231633411
한일타운2차 남성경로당 ,"경상남도 창원시 창원시 마산회원구 양덕로151(양덕동,한일타운2차아파트) ",128.582559924,35.231633411
한일타운3차 경로당 ,"경상남도 창원시 창원시 마산회원구 삼호로 151(양덕동,한일타운3차아파트) ",128.576931210,35.226675994
한일타운4차 경로당 ,"경상남도 창원시 창원시 마산회원구 양덕서로45(양덕동,한일타운4차아파트) ",128.581372925,35.228948502
우성아파트 경로당 ,"경상남도 창원시 창원시 마산회원구 양덕옛2길 16(양덕동,우성아파트) ",128.578219538,35.229023996
대림하이빌 아파트 경로당 ,"경상남도 창원시 창원시 마산회원구 양덕동2길 76(양덕동,대림하이빌아파트) ",128.590055749,35.224016761
메트로시티 남성노인회 ,"경상남도 창원시 창원시 마산회원구 양덕서로 30 103동 122호(양덕동,메트로시티아파트) ",128.581611252,35.227554880
메트로시티 여성노인회 ,"경상남도 창원시 창원시 마산회원구 양덕서로 30 119동 127호(양덕동,메트로시티아파트) ",128.584253300,35.226311389
반월경로당,경상남도 창원시 창원시 마산회원구 양덕서9길 14(양덕동) ,128.580001543,35.224065916
메트로시티2단지경로당,"경상남도 창원시 창원시 마산회원구 삼호로 80, 206동 1층(양덕동,메트로시티2단지아파트) ",128.584841494,35.225284261
양덕코오롱하늘채아파트경로당,"경상남도 창원시 창원시 마산회원구 양덕서5길 15(양덕동, 양덕코오롱하늘채아파트) ",128.578821936,35.227272868
합성1동남성경로당,경상남도 창원시 창원시 마산회원구 합성북16길 107(합성동),128.583945055,35.243146921
합성1동여성경로당,경상남도 창원시 창원시 마산회원구 합성북16길 95-6(합성동),128.583414951,35.242949945
신성남성경로당,경상남도 창원시 창원시 마산회원구 합성북8길 20(합성동),128.580552163,35.244013215
신성여성경로당,경상남도 창원시 창원시 마산회원구 합성북8길 20(합성동),128.580552163,35.244013215
합성가고파남성경로당,경상남도 창원시 창원시 마산회원구 합성서11길 26(합성동),128.580986133,35.239613376
합성가고파여성경로당,경상남도 창원시 창원시 마산회원구 합성서11길 26(합성동),128.580986133,35.239613376
무학경로당,"경상남도 창원시 창원시 마산회원구 금강로 35(합성동,무학아파트)",128.579138520,35.239340863
창원롯데캐슬더퍼스트경로당,경상남도 창원시 창원시 마산회원구 합성북16길 197(합성동),128.585883495,35.244708693
합성2동남성경로당,경상남도 창원시 창원시 마산회원구 합성동13길9(합성2동),128.586113893,35.237685398
합성2동여성경로당,경상남도 창원시 창원시 마산회원구 합성동13길9(합성2동),128.586113893,35.237685398
합성2동팔용경로당,경상남도 창원시 창원시 마산회원구 합성남11길56(합성2동),128.588158540,35.238798430
합성2동제2경로당,경상남도 창원시 창원시 마산회원구 합성남19길 4(합성2동),128.590140614,35.235657828
합성2동제3경로당,경상남도 창원시 창원시 마산회원구 합성동 3길 12(합성동),128.586573953,35.242261148
구암본동남성경로당,경상남도 창원시 창원시 마산회원구 구암북7길 18(구암동),128.593513218,35.253480119
구암본동여성경로당,경상남도 창원시 창원시 마산회원구 구암북7길 18(구암동),128.593513218,35.253480119
구암샛터남성경로당,경상남도 창원시 창원시 마산회원구 구암북15길 64(구암동),128.595664751,35.255533609
구암샛터여성경로당,경상남도 창원시 창원시 마산회원구 구암북15길 64 (구암동),128.595664751,35.255533609
구암대한여성경로당,경상남도 창원시 창원시 마산회원구 구암서9길 8 (구암동),128.594321237,35.250887661
구암제1남성경로당,경상남도 창원시 창원시 마산회원구 구암서3길 47(구암동),128.590978128,35.248625867
구암제2여성경로당,경상남도 창원시 창원시 마산회원구 구암서3길 47(구암동),128.590978128,35.248625867
구암1동제3경로당,경상남도 창원시 창원시 마산회원구 구암북 18길 39(구암동),128.595847601,35.257654804
제1남성경로당,경상남도 창원시 창원시 마산회원구 구암남10길 15(구암동),128.599128500,35.249989667
제1여성경로당,경상남도 창원시 창원시 마산회원구 구암남10길 15(구암동),128.599128500,35.249989667
제2남성경로당,경상남도 창원시 창원시 마산회원구 구암남15길 27(구암동),128.602092803,35.250621081
제2여성경로당,경상남도 창원시 창원시 마산회원구 구암남15길 27(구암동),128.602092803,35.250621081
신산남성경로당,경상남도 창원시 창원시 마산회원구 구암동1길 103(구암동),128.599540322,35.253811901
신산여성경로당,경상남도 창원시 창원시 마산회원구 구암동1길 103(구암동),128.599540322,35.253811901
제4남성경로당,경상남도 창원시 창원시 마산회원구 구암남7길 14(구암동),128.591332693,35.244693001
제4여성경로당,경상남도 창원시 창원시 마산회원구 구암남7길 14(구암동),128.591332693,35.244693001
대동2차아파트경로당,"경상남도 창원시 창원시 마산회원구 구암남6길 50(구암동, 대동2차아파트)",128.593239375,35.245934887
중앙하이츠아파트경로당,"경상남도 창원시 창원시 마산회원구 팔용로 215(구암동, 중앙하이츠)",128.594666250,35.246985600
봉암동제1남성경로당,경상남도 창원시 창원시 마산회원구 봉암북7길32(봉암동),128.598442132,35.223206750
봉암동제1여성경로당,경상남도 창원시 창원시 마산회원구 봉암북7길32(봉암동),128.598442132,35.223206750
봉암동제2남성경로당,경상남도 창원시 창원시 마산회원구 봉암북2길31(봉암동),128.597219312,35.221283531
봉암동제2여성경로당,경상남도 창원시 창원시 마산회원구 봉암붇2길31(봉암동),,
봉암서광아파트경로당,"경상남도 창원시 창원시 마산회원구 봉앙로239(봉암동,서광아파트)",,
봉암본동경로당,경상남도 창원시 창원시 마산회원구 봉암북16길14-1(봉암동),,
봉암본동부녀경로당,경상남도 창원시 창원시 마산회원구 봉암북16길14-1(봉암동),,
중앙동경로당,경상남도 창원시 진해구 충무로58번길 13-1,128.657568958,35.150582500
중앙동부녀경로당,경상남도 창원시 진해구 충무로58번길 13-1,128.657568958,35.150582500
데시앙아파트경로당,경상남도 창원시 진해구 중원동로 38,128.661781669,35.147474264
태평동경로당,경상남도 창원시 진해구 중원로10번길 13,128.660386378,35.145055054
태평동부녀경로당,경상남도 창원시 진해구 중원로10번길 13,128.660386378,35.145055054
속천동경로당,경상남도 창원시 진해구 속천로52번길 3(속천동),128.669161186,35.142181172
속천동부녀경로당,경상남도 창원시 진해구 속천로52번길 3(속천동),128.669161186,35.142181172
제황경로당,경상남도 창원시 진해구 속천로 26(제황산동 25-32),128.670192028,35.144593606
그린비치경로당,경상남도 창원시 진해구 속천로23번길 9,128.671373842,35.144196599
평화그린파크경로당,경상남도 창원시 진해구 제황로 10,128.669518706,35.146147260
대죽동경로당,경상남도 창원시 진해구 태평로48번길 14-7,128.663920281,35.144533453
대죽동부녀경로당,경상남도 창원시 진해구 태평로48번길 14-7,128.663920281,35.144533453
충무로5가경로당,경상남도 창원시 진해구 중원로74번길 7(대흥동),128.660576375,35.150770155
송학동부녀경로당,경상남도 창원시 진해구 중원로74번길 7(대흥동),128.660576375,35.150770155
화천여자경로당,경상남도 창원시 진해구 중원로74번길 7(대흥동),128.660576375,35.150770155
충무동경로당,경상남도 창원시 진해구 인사로 10(인사동),128.667782274,35.150463717
충무동부녀경로당,경상남도 창원시 진해구 인사로 10(인사동),128.667782274,35.150463717
제황산경로당,경상남도 창원시 진해구 충장로130번길 22-1(대흥동),128.665620869,35.150120586
제황산부녀경로당,경상남도 창원시 진해구 충장로130번길 22-1(대흥동),128.665620869,35.150120586
제황로경로당,경상남도 창원시 진해구 제황로80번길 24-5(충무동),128.669556853,35.150975818
제황로부녀경로당,경상남도 창원시 진해구 제황로80번길 24-5(충무동),128.669556853,35.150975818
중원경로당,경상남도 창원시 진해구 중원로38번길 7(중평동),128.660108840,35.147477284
평지경로당,경상남도 창원시 진해구 여좌천로174번길 12-1,128.657896146,35.167835738
평지부녀경로당,경상남도 창원시 진해구 여좌천로174번길 12-1,128.657896146,35.167835738
여좌경로당,경상남도 창원시 진해구 여좌로123번길 2,128.662764485,35.162363532
여좌부녀경로당,경상남도 창원시 진해구 여좌로123번길 2-1,128.662841645,35.162464160
여좌2가부녀경로당,경상남도 창원시 진해구 여좌로118번가길 19,128.665332068,35.161586269
여좌장복경로당,경상남도 창원시 진해구 여좌로58번길 17,128.662936323,35.158033322
여좌장복부녀경로당,경상남도 창원시 진해구 여좌로58번길 17,128.662936323,35.158033322
여좌1가경로당,경상남도 창원시 진해구 여좌남로41번길 21,128.660602563,35.156821993
여좌1가부녀경로당,경상남도 창원시 진해구 여좌남로41번길 21,128.660602563,35.156821993
여좌재건경로당,경상남도 창원시 진해구 여좌로15번길 26,128.662729719,35.154021192
여좌재건부녀경로당,경상남도 창원시 진해구 여좌로15번길 26,128.662729719,35.154021192
대광아파트경로당,경상남도 창원시 진해구 여명로16번길 22,128.657153325,35.154142535
여좌여명경로당,경상남도 창원시 진해구 여명로 56,128.658483438,35.157398059
여좌여명부녀경로당,경상남도 창원시 진해구 여명로 56,128.658483438,35.157398059
육대경로당,경상남도 창원시 진해구 여좌동 113-76,,
제광경로당,경상남도 창원시 진해구 충장로249번길 26,128.680138099,35.156156634
제광부녀경로당,경상남도 창원시 진해구 충장로249번길 26,128.680138099,35.156156634
태백동새동네경로당,경상남도 창원시 진해구 태백서로 62,128.674849378,35.156375531
태백동새동네부녀경로당,경상남도 창원시 진해구 태백서로 62,128.674849378,35.156375531
대야경로당,경상남도 창원시 진해구 대야로36번길 6,128.669297958,35.155013152
대야부녀경로당,경상남도 창원시 진해구 대야로36번길 6,128.669297958,35.155013152
대야삼거리경로당,경상남도 창원시 진해구 대야남로 35,128.669314533,35.153190304
태백동경로당,경상남도 창원시 진해구 태백서로 12-5,128.672657303,35.153361658
태백동부녀경로당,경상남도 창원시 진해구 태백서로 12-5,128.672657303,35.153361658
경일경로당,경상남도 창원시 진해구 충장로285번길 10,128.683397274,35.154841526
경일부녀경로당,경상남도 창원시 진해구 충장로285번길 10,128.683397274,35.154841526
경화동경로당,경상남도 창원시 진해구 경화로29번길 10-1,128.685066230,35.156127745
경화동부녀경로당,경상남도 창원시 진해구 경화로29번길 10-1,128.685066230,35.156127745
조천경로당,경상남도 창원시 진해구 조천로 5-7,128.683307098,35.158613949
조천부녀경로당,경상남도 창원시 진해구 조천로 5-7,128.683307098,35.158613949
경화포스코경로당,경상남도 창원시 진해구 조천북로 65,128.679187188,35.159623999
삼정그린코아경로당,경상남도 창원시 진해구 조천북로 97,128.682234422,35.161475750
경화동새마을경로당,경상남도 창원시 진해구 경화동 1370-26,,
병암동경로당,경상남도 창원시 진해구 경화로18번길 25,128.688957063,35.155271148
병암동부녀경로당,경상남도 창원시 진해구 경화로18번길 25,128.688957063,35.155271148
경화아파트경로당,경상남도 창원시 진해구 경화시장로 34-3,128.691415320,35.156609919
상지아파트경로당,경상남도 창원시 진해구 병암북로4번길 37,128.694533186,35.160891249
병암동사랑방경로당,경상남도 창원시 진해구 진해대로694번길 14,128.691325461,35.158210006
병암동행복경로당,경상남도 창원시 진해구 충장로364번나길 9-23,128.691001029,35.151772297
석동경로당,경상남도 창원시 진해구 돌리로10번길 5-1(석동),128.701137017,35.158870789
석동부녀경로당,경상남도 창원시 진해구 돌리로10번길 5-1(석동),128.701137017,35.158870789
한솔솔파크경로당,"경상남도 창원시 진해구 돌리로16번길 18(석동,진해석동한솔솔파크1단지)",128.702491035,35.158488929
석동그린빌2단지경로당,"경상남도 창원시 진해구 냉천로107번길 14(석동,벚꽃그린빌주공2단지) 210동내",128.709148619,35.155637695
벚꽃그린빌3단지경로당,"경상남도 창원시 진해구 석동로 60(석동,벚꽃그린빌주공3단지) 관리사무소동",128.705391334,35.155505216
석동그린빌4단지경로당,"경상남도 창원시 진해구 석동로 80(석동,벚꽃그린빌주공4단지) 409동내",128.708351688,35.156223687
석동공원경로당,경상남도 창원시 진해구 석동로34번길 14(석동),128.703181856,35.153469030
석동공원부녀경로당,경상남도 창원시 진해구 석동로34번길 14(석동),128.703181856,35.153469030
이동신성미소지움아파트경로당,"경상남도 창원시 진해구 동진로21번길 17(이동,진해이동미소지움1단지)",128.699168139,35.155310322
우림필유아파트경로당,"경상남도 창원시 진해구 해원로 45(석동,진해석동우림필유)",128.697308203,35.158334050
석동푸르지오경로당,"경상남도 창원시 진해구 진해대로 727(석동,진해석동푸르지오)",128.695454131,35.159807340
석동자이아파트경로당,"경상남도 창원시 진해구 동진로21번길 26(석동,지에스진해자이아파트)",128.699374759,35.156778742
창원석동LH아파트경로당,경상남도 창원시 진해구 냉천로 125,128.709630189,35.154902997
구이동경로당,경상남도 창원시 진해구 이동로59번길 6,128.698298725,35.151756429
구이동부녀경로당,경상남도 창원시 진해구 이동로59번길 6,128.698298725,35.151756429
신이동경로당,경상남도 창원시 진해구 충장로449번길 16,128.700034943,35.149405397
신이동부녀경로당,경상남도 창원시 진해구 충장로449번길 16,128.700034943,35.149405397
이동택지경로당,경상남도 창원시 진해구 충장로442번길 22-10,128.695300093,35.150135638
이동택지부녀경로당,경상남도 창원시 진해구 충장로442번길 22-10,128.695300093,35.150135638
남흥아파트경로당,경상남도 창원시 진해구 해원로 5,128.694394626,35.153483232
석동주공아파트경로당,경상남도 창원시 진해구 냉천로 52,128.703875705,35.149438027
자은동관사경로당,경상남도 창원시 진해구 덕산로61번길19,128.706204082,35.147537274
자은동관사부녀경로당,경상남도 창원시 진해구 덕산로61번길19,128.706204082,35.147537274
자은동하구경로당,경상남도 창원시 진해구 자은로78번길4,128.709547050,35.152039033
자은동하구부녀경로당,경상남도 창원시 진해구 자은로78번길4,128.709547050,35.152039033
자은동냉천경로당,경상남도 창원시 진해구 냉천로129번길17,128.709738793,35.155597208
자은동냉천부녀경로당,경상남도 창원시 진해구 냉천로129번길17,128.709738793,35.155597208
벚꽃마을경로당,경상남도 창원시 진해구 진해대로921번길10,128.708675880,35.147190001
벚꽃마을부녀경로당,경상남도 창원시 진해구 진해대로921번길10,128.708675880,35.147190001
성원아파트경로당,경상남도 창원시 진해구 냉천로108번길6,128.707534001,35.153184378
대동빌라트경로당,경상남도 창원시 진해구 냉천로88,128.706719554,35.152903161
삼성아파트경로당,경상남도 창원시 진해구 자은로64번길40,128.708133240,35.147506306
자은동월드메르디앙아파트경로당,경상남도 창원시 진해구 자은로64번가길26,128.712298840,35.151461492
자은프라임아파트경로당,경상남도 창원시 진해구 냉천로 257,128.719796072,35.152739239
자은프라임아파트부녀경로당,경상남도 창원시 진해구 냉천로 257,128.719796072,35.152739239
천년나무아파트경로당,경상남도 창원시 진해구 냉천로 192,128.716249835,35.155901540
에일린의뜰아파트경로당,경상남도 창원시 진해구 냉천로 235,128.721653720,35.155051991
센트럴빌리지아파트경로당,경상남도 창원시 진해구 냉천로 189,128.716887787,35.156848417
자은중흥S클래스경로당,경상남도 창원시 진해구 냉천로 262(자은동),128.717455603,35.153028397
덕산동경로당,경상남도 창원시 진해구 덕산로36번길 19,128.703928133,35.144049390
자은동본동경로당,경상남도 창원시 진해구 진해대로979번길 6-1,128.707936762,35.141509641
자은동본동부녀경로당,경상남도 창원시 진해구 진해대로979번길 6-1,128.707936762,35.141509641
풍호주공아파트경로당,경상남도 창원시 진해구 동진로 166,128.702786055,35.142639910
경동윈츠빌경로당,경상남도 창원시 진해구 풍호로3번길 14,128.702438552,35.140932051
자은동포스코아파트경로당,경상남도 창원시 진해구 진해대로 975번길 26,128.710313545,35.142355297
자은주공3단지아파트경로당,경상남도 창원시 진해구 진해대로975번길 23,128.709802543,35.142850811
풍호동경로당,경상남도 창원시 진해구 진해대로 1034번길 9(풍호동) ,128.707212094,35.136858512
풍호동부녀경로당,경상남도 창원시 진해구 진해대로 1034번길 9(풍호동) ,128.707212094,35.136858512
시영아파트경로당,"경상남도 창원시 진해구 진해대로 1041번길 35(풍호동,시영아파트)",128.712206008,35.137377838
풍호우성아파트경로당,경상남도 창원시 진해구 충장로 575-1(풍호동),128.703002806,35.137734187
풍호우성아파트부녀경로당,경상남도 창원시 진해구 충장로 575-1(풍호동),128.703002806,35.137734187
장천동경로당,경상남도 창원시 진해구 충장로 671번길 9(장천동),128.704924390,35.129941824
장천동부녀경로당,경상남도 창원시 진해구 충장로 671번길 9(장천동),128.704924390,35.129941824
장천동서부경로당,경상남도 창원시 진해구 행암로 92번길 7(장천동),128.699940016,35.127830758
장천서부부녀경로당,경상남도 창원시 진해구 행암로 92번길 7(장천동),128.699940016,35.127830758
행암동경로당,경상남도 창원시 진해구 행암로 223(행암동),128.701010798,35.115546527
행암동부녀경로당,경상남도 창원시 진해구 행암로 223(행암동),128.701010798,35.115546527
아이존빌아파트경로당,"경상남도 창원시 진해구 풍호로 42번길 15(풍호동,ds아이존빌아파트)",128.706469216,35.138692051
상리마을경로당,경상남도 창원시 진해구 진해대로 1162번길 7(장천동),128.711363045,35.125534251
평화마을아파트경로당,"경상남도 창원시 진해구 충장로 603번길 10(풍호동,평화마을아파트)",128.703392458,35.135374245
한림리츠빌아파트경로당,"경상남도 창원시 진해구 풍호로 68(풍호동,한림리츠빌아파트)",128.708668800,35.139536528
장천대동다숲경로당,"경상남도 창원시 진해구 행암로 25(장천동,대동다숲) ",128.707522335,35.129821441
장천대동다숲부녀경로당,"경상남도 창원시 진해구 행암로 25(장천동,대동다숲) ",128.707522335,35.129821441
벽산e-솔렌스힐아파트경로당,경상남도 창원시 진해구진해대로1099-10,,
창원마린푸르지오1단지경로당,"경상남도 창원시 진해구 천자로386(풍호동,창원마린푸르지오1단지)",128.704576898,35.134430955
한신휴플러스오션파크아파트경로당,"경상남도 창원시 진해구 행암로5(장천동, 한신휴플러스오션파트아파트경로당)",,
북부경로당,경상남도 창원시 진해구 웅천로159번길 10-17,128.748508741,35.114368141
북부부녀경로당,경상남도 창원시 진해구 웅천로159번길 10-17,128.748508741,35.114368141
관정경로당,경상남도 창원시 진해구 웅천북로39번길 12-14,128.747529243,35.117605226
서중동경로당,경상남도 창원시 진해구 웅천중로65번길 17-1,128.748027834,35.111475629
서중동부녀경로당,경상남도 창원시 진해구 웅천중로65번길 17-1,128.748027834,35.111475629
성내경로당,경상남도 창원시 진해구 웅천중로56번길 15,128.750156858,35.111528333
성내부녀경로당,경상남도 창원시 진해구 웅천중로56번길 15,128.750156858,35.111528333
남문경로당,경상남도 창원시 진해구 웅천중로40번길 3-2,128.750233628,35.109534630
남문부녀경로당,경상남도 창원시 진해구 웅천중로40번길 3-2,128.750233628,35.109534630
제덕경로당,경상남도 창원시 진해구 제덕로234번길 11-3,128.742269811,35.104910553
괴정경로당,경상남도 창원시 진해구 명제로472번길 30,128.743934756,35.100114607
괴정부녀경로당,경상남도 창원시 진해구 명제로472번길 30,128.743934756,35.100114607
수도경로당,경상남도 창원시 진해구 수도로 18,128.744894287,35.084954889
와성경로당,경상남도 창원시 진해구 웅천동로 49번길 98,128.763962176,35.100909826
백일경로당,경상남도 창원시 진해구 웅천북로 190,128.735976129,35.122820906
어은경로당,경상남도 창원시 진해구 어은로35번길 7,128.728690589,35.115160389
삼포경로당,경상남도 창원시 진해구 명제로324번길 25-5,128.730158535,35.094938504
명동경로당,경상남도 창원시 진해구 명동로 29,128.716879265,35.096359285
신명경로당,경상남도 창원시 진해구 명동로83번길 8(명동 345-2),128.720625697,35.096418356
죽곡경로당,"경상남도 창원시 진해구 명제로 107번길 19, 102(죽곡동, STX그린빌아파트)",128.718374591,35.104729709
시티프라디움1차아파트경로당,경상남도 창원시 진해구 웅천동로 15,128.752903743,35.109259785
시티프라디움2차아파트경로당,경상남도 창원시 진해구 웅천동로 100,128.751114598,35.104399511
진해남문호반베르디움아파트경로당,경상남도 창원시 진해구 웅천동로43번길 19,128.759104263,35.103413834
마천경로당,경상남도 창원시 진해구 웅동로51번길 16,128.781859387,35.126201781
마천부녀경로당,경상남도 창원시 진해구 웅동로51번길 16,128.781859387,35.126201781
남명플럼빌리지경로당,경상남도 창원시 진해구 웅동로 70,128.783117367,35.124938385
대장동경로당,경상남도 창원시 진해구 대장로 192 (대장동),128.778216870,35.140951710
대장동부녀경로당,경상남도 창원시 진해구 대장로 192 (대장동),128.778216870,35.140951710
소사경로당,경상남도 창원시 진해구 소사로43번길 6 (소사동),128.777518985,35.128467131
영길경로당,경상남도 창원시 진해구 남영로 500 (남양동),128.781601981,35.114273945
영길부녀경로당,경상남도 창원시 진해구 남영로 500 (남양동),128.781601981,35.114273945
의곡경로당,경상남도 창원시 진해구 웅동로 194 (두동),128.791967031,35.117174987
경남아너스빌경로당,경상남도 창원시 진해구 마천로 50,128.784470055,35.127769635
청안해오름프리존빌경로당,"경상남도 창원시 진해구 웅동로 150 (두동, 청안해오름아파트)",128.790592820,35.120532570
내곡경로당,경상남도 창원시 진해구 웅동로121번길 12 (마천동),128.789658881,35.123138576
금곡경로당,경상남도 창원시 진해구 마천로 18번안길 15-1,128.785999800,35.125360453
금곡부녀경로당,경상남도 창원시 진해구 마천로 18번안길 15-1,128.785999800,35.125360453
월남경로당,경상남도 창원시 진해구 월남로104번길 12 (남양동),128.776202356,35.118146270
(사)대한노인회진해지회부암경로당,경상남도 창원시 진해구 마천로103번길 8 (마천동),128.783801877,35.133783639
우방아이유쉘경로당,경상남도 창원시 진해구 월남로144(남양동),128.779765825,35.120051615
주포경로당,경상남도 창원시 진해구 가주로 162 (가주동),128.836330802,35.117612036
가동경로당,경상남도 창원시 진해구 가주동 359번지 1호 ,,
용원경로당,경상남도 창원시 진해구 용원남로17번길 17 (용원동),128.818254954,35.095173615
용원부녀경로당,경상남도 창원시 진해구 용원남로17번길 17 (용원동),128.818254954,35.095173615
안골경로당,경상남도 창원시 진해구 안골로220번길 36 (안골동),128.797451025,35.092655597
안골부녀경로당,경상남도 창원시 진해구 안골로220번길 36 (안골동),128.797451025,35.092655597
청천경로당,경상남도 창원시 진해구 청안로233번길 5 (청안동),128.800937364,35.100902663
안성경로당,경상남도 창원시 진해구 청안로170번길 40-6 (청안동),128.791653355,35.103003868
용원현대아파트경로당,경상남도 창원시 진해구 안청북로 42,128.807664654,35.104411351
풍림아파트경로당,경상남도 창원시 진해구 안청북로 37,128.807112792,35.104554994
풍림아파트부녀경로당,경상남도 창원시 진해구 안청북로 37,128.807112792,35.104554994
부영1차아파트경로당,경상남도 창원시 진해구 안청남로 13,128.803616316,35.103093981
부영1차아파트부녀경로당,경상남도 창원시 진해구 안청남로 13,128.803616316,35.103093981
부영2차아파트경로당,경상남도 창원시 진해구 안청북로 10,128.804148346,35.104075233
부영2차아파트부녀경로당,경상남도 창원시 진해구 안청북로 10,128.804148346,35.104075233
부영3차아파트경로당,경상남도 창원시 진해구 안청북로 15,128.804514648,35.105948437
부영3차아파트부녀경로당,경상남도 창원시 진해구 안청북로 15,128.804514648,35.105948437
해인로즈빌아파트경로당,경상남도 창원시 진해구 안청로 126,128.806322845,35.106447695
해인로즈빌아파트부녀경로당,경상남도 창원시 진해구 안청로 126,128.806322845,35.106447695
일신님아파트경로당,경상남도 창원시 진해구 안청남로 29-1,128.806973302,35.102701856
일신님아파트부녀경로당,경상남도 창원시 진해구 안청남로 29-1,128.806973302,35.102701856
코아루아파트경로당,경상남도 창원시 진해구 안골로 339,128.807169824,35.100577221
신안골경로당,경상남도 창원시 진해구 안골동 358-3,,
이지더원아파트경로당,경상남도 창원시 진해구 신항동로 143,128.812605464,35.088395249
부산신항13단지부영아파트경로당,경상남도 창원시 진해구 신항4로 75(용원동),128.816119599,35.090200451
문산경로당,경상남도 진주시 진주시 문산읍 동부로588번길 10 ,128.164840156,35.166655023
상이경로당,경상남도 진주시 진주시 문산읍 동부로781번길 56 ,128.186671302,35.173965175
부동경로당,경상남도 진주시 진주시 문산읍 소문길 117 ,128.173671735,35.171207644
주정경로당,경상남도 진주시 진주시 문산읍 소문길 89-6 ,128.171004273,35.171841835
관정경로당,경상남도 진주시 진주시 소문길67번길 11 ,128.169188963,35.171490052
동정경로당,경상남도 진주시 진주시 문산읍 소문길53번길 3 ,128.167638346,35.170796314
서정경로당,경상남도 진주시 진주시 문산읍 소문길 37-10 ,128.166167359,35.171086129
남동경로당,경상남도 진주시 진주시 문산읍 소문길17번길 6(2층) ,128.163966851,35.171029043
남서경로당,경상남도 진주시 진주시 문산읍 월아산로1094번길 7 ,128.162574999,35.169223407
삼곡리경로당,경상남도 진주시 진주시 문산읍 동부로 634 ,128.168988387,35.168692035
원당경로당,경상남도 진주시 진주시 문산읍 동부로 620 ,128.167403111,35.168484414
덕촌경로당,경상남도 진주시 진주시 문산읍 동부로591번길 6-1(2층) ,128.164641060,35.168357117
덕동경로당,경상남도 진주시 진주시 문산읍 동부로587번길 9 ,128.163983689,35.168198683
덕남경로당,경상남도 진주시 진주시 문산읍 동부로 564 ,128.162634349,35.165768202
제곡경로당,경상남도 진주시 진주시 문산읍 제곡길 153 ,128.179430449,35.157231290
어수경로당,경상남도 진주시 진주시 문산읍 월아산로800번길 22 ,128.167425298,35.148337291
이곡경로당,경상남도 진주시 진주시 문산읍 이곡길 123 ,128.181087275,35.148949568
안전경로당,경상남도 진주시 진주시 문산읍 정자천로 371 ,128.203228831,35.145750771
동방경로당,경상남도 진주시 진주시 문산읍 정자천로 204 ,128.190712468,35.136217928
갈곡경로당,경상남도 진주시 진주시 문산읍 갈곡길 24 ,128.208212338,35.149084718
갈곡노인경로당,경상남도 진주시 진주시 문산읍 문산로 696 ,128.208579285,35.146903886
송정경로당,경상남도 진주시 진주시 문산읍 문산로 582 ,128.220037123,35.143535901
정동경로당,경상남도 진주시 진주시 문산읍 동부로326번길 85 ,128.133581099,35.158537556
원촌경로당,경상남도 진주시 진주시 문산읍 동부로302번길 3 ,128.137776096,35.162464570
신촌경로당,경상남도 진주시 진주시 문산읍 문정로592번길 19-4 ,128.153301969,35.158671496
대호경로당,경상남도 진주시 진주시 문산읍 문정로540번길 13 ,128.150511782,35.154463116
두산경로당,경상남도 진주시 진주시 문산읍 두산길203번길 12 ,128.151613273,35.144926176
계리경로당,경상남도 진주시 진주시 문산읍 두산길5번길 1 ,128.162727409,35.135439497
파란채경로당,경상남도 진주시 진주시 문산읍 월아산로1048번길 15(문산파란채A) ,128.165837549,35.164888485
코아루A경로당,경상남도 진주시 진주시 문산읍 월아산로1117번길 5(문산코아루A) ,128.161535699,35.170413685
독산경로당,경상남도 진주시 진주시 내동면 순환로 396 ,128.068364316,35.161362533
산강경로당,경상남도 진주시 진주시 내동면 산유로 463 ,128.060355094,35.143863236
대동경로당,경상남도 진주시 진주시 내동면 내동로 264 ,128.093819522,35.149235720
율곡경로당,경상남도 진주시 진주시 내동면 신율길 95 ,128.087856705,35.143330025
산기경로당,경상남도 진주시 진주시 내동면 철봉산길147번길 9 ,,
삼계경로당,경상남도 진주시 진주시 내동면 삼계로312번길 3 ,128.034401157,35.152193070
양옥경로당,경상남도 진주시 진주시 내동면 삼계로 288 ,128.032846224,35.150644640
신광경로당,경상남도 진주시 진주시 내동면 삼계로140번길 23 ,128.029743524,35.137392013
유동경로당,경상남도 진주시 진주시 내동면 내축로 425(2층) ,128.031606488,35.126159034
가호경로당,경상남도 진주시 진주시 내동면 유수길 121 ,128.011806364,35.127311248
정동경로당,경상남도 진주시 진주시 내동면 내축로577번길 13-2 ,128.017848560,35.132808210
내평경로당,경상남도 진주시 진주시 내동면 내축로663번길 48 ,128.020864028,35.141075403
상촌경로당,경상남도 진주시 진주시 내동면 내축로577번길 166-3(2층) ,128.004714183,35.140181388
남강휴먼빌A경로당,경상남도 진주시 진주시 내동면 순환로 425-61(남강휴먼빌A) ,128.066871442,35.161227603
화동경로당,경상남도 진주시 진주시 정촌면 화개길 61 ,128.103527251,35.134560274
화원경로당,경상남도 진주시 진주시 정촌면 대축길237번길 22 ,128.096334139,35.137284122
매동경로당,경상남도 진주시 진주시 정촌면 화개길 234 ,128.112328524,35.137065009
매동본동경로당,경상남도 진주시 진주시 정촌면 화개길 148 ,128.109850722,35.133182229
이동경로당,경상남도 진주시 진주시 정촌면 정촌로139번길 19-9 ,128.109434716,35.128444404
모심경로당,경상남도 진주시 진주시 정촌면 화개길 345 ,128.101625580,35.140599954
죽봉경로당,경상남도 진주시 진주시 정촌면 화개길194번길 121(2층) ,128.122022167,35.139842045
고미경로당,경상남도 진주시 진주시 정촌면 정촌로 626 ,128.142989123,35.136298790
봉동경로당,경상남도 진주시 진주시 정촌면 문정로82번길 4 ,128.143707946,35.125836217
봉전경로당,경상남도 진주시 진주시 정촌면 무선산로 265 ,128.152906721,35.118151673
소곡경로당,경상남도 진주시 진주시 정촌면 정촌로265번길 15 ,128.121319427,35.122802911
삼웅경로당,경상남도 진주시 진주시 정촌면 정촌로 525 ,128.133046851,35.136123082
예상경로당,경상남도 진주시 진주시 정촌면 강주길 125 ,128.102385274,35.109999914
대초경로당,경상남도 진주시 진주시 정촌면 강주길229번길 16 ,128.112830340,35.110650522
강주경로당,경상남도 진주시 진주시 정촌면 강주길 52(2층)    ,128.097466036,35.114158886
강남경로당,경상남도 진주시 진주시 정촌면 강주길18번길 24 ,128.093302279,35.112444225
강서경로당,경상남도 진주시 진주시 정촌면 강주길 3-8 ,128.092859661,35.115193079
목과경로당,경상남도 진주시 진주시 정촌면진주대로 134-25 ,128.096321191,35.121600676
목과남경로당,경상남도 진주시 진주시 정촌면진주대로130번길 29-7 ,128.096871731,35.119446115
대방경로당,경상남도 진주시 진주시 정촌면 대축길131번길 23 ,128.089418584,35.132014983
함촌경로당,경상남도 진주시 진주시 정촌면 대축길85번길 45-3 ,128.085431858,35.126304566
함촌본동경로당,경상남도 진주시 진주시 정촌면 대축길105번길 10-2 ,128.088704504,35.128490684
심대경로당,경상남도 진주시 진주시 정촌면 대축길85번길 145 ,128.076309029,35.130588928
정촌대경파미르경로당,경상남도 진주시 진주시 정촌면 삼일로106번길 8 ,128.099285321,35.128818482
정촌올리움아파트경로당,경상남도 진주시 진주시 정촌면 삼일로 12,128.097751883,35.123110950
엄정경로당,경상남도 진주시 진주시 금곡면 검암길 110    ,128.189753169,35.116800172
운문경로당,경상남도 진주시 진주시 금곡면 금곡로 145    ,128.197272774,35.121605198
차현경로당,경상남도 진주시 진주시 금곡면 금곡로78번길 2    ,,
검당경로당,경상남도 진주시 진주시 금곡면 월아산로 425-17    ,128.179963905,35.118836048
신담경로당,경상남도 진주시 진주시 금곡면 월아산로479번길 5    ,128.179989202,35.122178357
가봉경로당,경상남도 진주시 진주시 금곡면 문산로 358    ,128.217839857,35.126154441
가수동경로당,경상남도 진주시 진주시 금곡면 문산로 266-1    ,128.218408830,35.120478387
우봉경로당,경상남도 진주시 진주시 금곡면 금곡로 453    ,128.229930989,35.125391444
송곡경로당,경상남도 진주시 진주시 금곡면 송곡길 106    ,128.198377002,35.132174074
정자경로당,경상남도 진주시 진주시 금곡면 정자천로 66    ,128.176983955,35.134285725
홍정경로당,경상남도 진주시 진주시 금곡면 홍정길52번길 5    ,128.175452572,35.129798177
시평경로당,경상남도 진주시 진주시 금곡면 월아산로480번길 26    ,128.182398052,35.123566057
인담경로당,경상남도 진주시 진주시 금곡면 무선산로 550-5    ,128.171853746,35.118857529
상인담경로당,경상남도 진주시 진주시 금곡면 무선산로464번길 40    ,128.168809017,35.109108353
동례경로당,경상남도 진주시 진주시 금곡면 월아산로 282    ,128.182266107,35.106253030
신대경로당,경상남도 진주시 진주시 금곡면 월아산로201번길 5    ,128.185116466,35.099290554
두문경로당,경상남도 진주시 진주시 금곡면 두문길 115    ,128.194098730,35.101345939
세경경로당,경상남도 진주시 진주시 금곡면 월아산로115번길 22-10(2층)    ,128.185109780,35.091115164
세경할머니경로당,경상남도 진주시 진주시 금곡면 구암두문로 1021-5(2층)    ,128.186421857,35.090811851
석계경로당,경상남도 진주시 진주시 금곡면 구암두문로986번길 32    ,128.180163543,35.087847691
장재경로당,경상남도 진주시 진주시 금곡면 죽곡길118번길 64-1    ,128.171707520,35.078686842
죽곡경로당,경상남도 진주시 진주시 금곡면 죽곡길105번길 17(2층)    ,128.178063824,35.074287166
성산경로당,경상남도 진주시 진주시 금곡면 성산길28번길 102    ,128.185854297,35.071413591
덕계경로당,경상남도 진주시 진주시 금곡면 성산길 188    ,128.201047067,35.073069716
진성경로당,경상남도 진주시 진주시 진성면 동부로 1336-9 ,128.225436255,35.185331315
교동경로당,경상남도 진주시 진주시 진성면진성로349번길 3 ,128.225118231,35.168455489
상동경로당,경상남도 진주시 진주시 진성면진성로 459 ,128.223164808,35.177865851
예음경로당,경상남도 진주시 진주시 진성면 동부로1345번길 24-11 ,128.222512673,35.187839580
구천경로당,경상남도 진주시 진주시 진성면진성로259번길 17 ,128.225581329,35.161014989
도동경로당,경상남도 진주시 진주시 진성면진성로276번길 149 ,128.235151997,35.155543490
대사경로당,경상남도 진주시 진주시 진성면 대사길 29-9 ,128.252592002,35.146798084
대사웃골경로당,경상남도 진주시 진주시 진성면 대사길 75-3 ,128.248406857,35.146432984
두소경로당,경상남도 진주시 진주시 진성면 일사로 501 ,128.254930114,35.152496544
장곡경로당,경상남도 진주시 진주시 진성면 일사로 658 ,128.258835194,35.164268449
내촌경로당,경상남도 진주시 진주시 진성면 일사로693번길 28 ,128.254496151,35.165526374
사곡경로당,경상남도 진주시 진주시 진성면 온수길59번길 21 ,128.252147154,35.170061171
천곡경로당,경상남도 진주시 진주시 진성면 동부로1602번길 78 ,128.250224908,35.182005407
대흥경로당,경상남도 진주시 진주시 진성면 천곡길 24 ,128.244108621,35.187412128
동산경로당,경상남도 진주시 진주시 진성면진의로94번길 9 ,,
월정경로당,경상남도 진주시 진주시 진성면 동산길 60 ,128.216533324,35.195116550
진동경로당,경상남도 진주시 진주시 진성면진의로215번길 25 ,,
가좌경로당,경상남도 진주시 진주시 진성면진의로 349 ,,
반성경로회경로당,경상남도 진주시 진주시 떡보길 13 ,128.278982855,35.168892292
창촌경로당,경상남도 진주시 진주시 창촌길75번길 13 ,128.283550306,35.171974443
구리경로당,경상남도 진주시 진주시 동부로 2036 ,128.284145484,35.170394535
시정경로당,경상남도 진주시 진주시 창촌길70번길 10-2 ,128.281914082,35.171209171
신기경로당,경상남도 진주시 진주시 창촌길45번길 18-4 ,128.280309143,35.172907130
신촌경로당,경상남도 진주시 진주시 창촌길 32-1 ,128.278110505,35.171632598
신촌노모정경로당,경상남도 진주시 진주시 창촌길 32-6 ,128.277966104,35.171255698
선동경로당,경상남도 진주시 진주시 동부로2059번길 38 ,128.289907480,35.171575469
가곡경로당,경상남도 진주시 진주시 공치고개길193번길 12 ,128.294906982,35.183757724
소아경로당,경상남도 진주시 진주시 반성로127번길 49(1.2층) ,128.306046120,35.170887777
개암경로당,경상남도 진주시 진주시 개암길9번길 4 ,128.293162283,35.168194529
개암할머니경로당,경상남도 진주시 진주시 개암길 39-2 ,128.295009453,35.170382265
도동경로당,경상남도 진주시 진주시 반성로33번길 3-1 ,128.298351218,35.167228159
남평경로당,경상남도 진주시 진주시 동부로2060번길 28-2 ,128.284869458,35.168181047
답천경로당,경상남도 진주시 진주시 수목원로277번길 28-2 ,128.285096449,35.158324856
도장경로당,경상남도 진주시 진주시 떡보길110번길 32-6 ,128.279365082,35.159631988
양전경로당,경상남도 진주시 진주시 양전길91번길 2 ,128.295479642,35.154175929
원당경로당,경상남도 진주시 진주시 일사로782번길 21-7 ,128.263092976,35.173234137
운천본동경로당,경상남도 진주시 진주시 운천길 107 ,128.265465166,35.164513121
포실경로당,경상남도 진주시 진주시 운천길151번길 9 ,128.270157770,35.162461550
상촌경로당,경상남도 진주시 진주시 운천길202번길 68-7 ,128.273001247,35.154519362
남산경로당,경상남도 진주시 진주시 일사로 412 ,128.259560684,35.148384930
관동경로당,경상남도 진주시 진주시 일사로375번길 28 ,128.261704398,35.144613779
금야경로당,경상남도 진주시 진주시 일사로 354 ,128.265141760,35.146661384
상남경로당,경상남도 진주시 진주시 수목원로 57 ,128.279547096,35.145243541
원동경로당,경상남도 진주시 진주시 남산길 115 ,128.291345083,35.139994433
태완노블리안아파트경로당,경상남도 진주시 진주시 공치고개길 34 ,128.285984343,35.172731816
진안경로당,경상남도 진주시 진주시 이반성면 장안로 212-2 ,128.355329365,35.186807157
장안경로당,경상남도 진주시 진주시 이반성면 장안로65번길 69 ,128.346806351,35.193296483
검정경로당,경상남도 진주시 진주시 이반성면 장안로66번길 18-10 ,128.340233611,35.188256508
송죽경로당,경상남도 진주시 진주시 이반성면 오봉산로1025번길 40 ,128.334376613,35.192354538
중도경로당,경상남도 진주시 진주시 이반성면 오봉산로949번길 14-1 ,128.332040400,35.189911008
죽산경로당,경상남도 진주시 진주시 이반성면 부평길 42번길 4 ,128.328014314,35.187167432
삼거경로당,경상남도 진주시 진주시 이반성면 오봉산로 881 ,128.330644993,35.182883720
지화경로당,경상남도 진주시 진주시 이반성면 오봉산로761번길 83 ,128.320617210,35.177301314
동촌경로당,경상남도 진주시 진주시 이반성면 하곡로 181 ,128.344774356,35.173056145
서촌경로당,경상남도 진주시 진주시 이반성면 하곡로 85 ,128.334976423,35.173794472
용암경로당,경상남도 진주시 진주시 이반성면 용암길 69 ,128.333056960,35.165582164
모곡경로당,경상남도 진주시 진주시 이반성면 반성로 276 ,128.323982219,35.168949566
하동경로당,경상남도 진주시 진주시 이반성면 반성로229번길 13-2 ,128.319623477,35.170901392
상촌경로당,경상남도 진주시 진주시 이반성면 오봉산로554번길 18-1 ,128.318679094,35.157085594
중촌경로당,경상남도 진주시 진주시 이반성면 가산길 8 ,128.315527069,35.157112095
하촌경로당,경상남도 진주시 진주시 이반성면 가산길 44 ,128.312995116,35.159076328
대동경로당,경상남도 진주시 진주시 이반성면 대천길 155번길 11 ,128.307600925,35.155692392
오동경로당,경상남도 진주시 진주시 이반성면 대천길 78 ,128.299883586,35.157789010
심신경로당,경상남도 진주시 진주시 이반성면 오봉산로405번길 13-2 ,128.309013912,35.146827608
수성경로당,경상남도 진주시 진주시 이반성면진마대로2498번길 53 ,,
교풍경로당,경상남도 진주시 진주시 이반성면진마대로2520번길 97 ,,
평동경로당,경상남도 진주시 진주시 이반성면 길성길 19번길 11 ,128.327624718,35.149370097
계룡경로당,경상남도 진주시 진주시 이반성면 길성길 77 ,128.333584241,35.150454588
발산경로당,경상남도 진주시 진주시 이반성면 발산길 11번길 16-3 ,128.344155469,35.142563651
북마성경로당,경상남도 진주시 진주시 지사로552번길 10 ,128.237735837,35.218542768
시곡경로당,경상남도 진주시 진주시 지사로486번길 27 ,128.243351920,35.212899242
남마성경로당,경상남도 진주시 진주시 지사로 349 ,128.236194750,35.204001550
등건경로당,경상남도 진주시 진주시 지사로284번길 43-1 ,128.243777882,35.199956667
방촌경로당,경상남도 진주시 진주시 지사로 158 ,128.252021350,35.196914861
죽항경로당,경상남도 진주시 진주시 동부로1751번길 5 ,128.259941559,35.182650470
중촌경로당,경상남도 진주시 진주시 동부로1769번길 31 ,128.263987053,35.181477381
다무경로당,경상남도 진주시 진주시 동부로 1859-1 ,128.270660744,35.178324221
진등경로당,경상남도 진주시 진주시 사군로55번길 16 ,128.263923359,35.187886973
사봉경로당,경상남도 진주시 진주시 사군로55번길 21 ,128.263315107,35.188065530
우곡경로당,경상남도 진주시 진주시 우곡길 64 ,128.263981084,35.192001862
사동경로당,경상남도 진주시 진주시 사군로103번길 26-4 ,128.269341069,35.190039430
봉대경로당,경상남도 진주시 진주시 사군로243번길 5-4 ,128.274882436,35.199035267
거곡경로당,경상남도 진주시 진주시 지수로98번길 12-5 ,128.284123079,35.205802348
초문경로당,경상남도 진주시 진주시 사군로361번길 75 ,128.289147875,35.202260972
모곡경로당,경상남도 진주시 진주시 모곡길 37 ,128.291010506,35.196612095
저동경로당,경상남도 진주시 진주시 공치고개길228번길 27 ,128.298408520,35.185614520
부동경로당,경상남도 진주시 진주시 부계길 100 ,128.313216652,35.188591906
오동경로당,경상남도 진주시 진주시 부평길 320 ,128.318586391,35.204206221
화광경로당,경상남도 진주시 진주시 사군로758번길 33-22 ,128.311910795,35.212238047
하동경로당,경상남도 진주시 진주시 지수면 승산길 40-2 ,128.268908157,35.235655896
지수경로당,경상남도 진주시 진주시 지수면 지수로 443 ,128.268756850,35.231278523
승산상동경로당,경상남도 진주시 진주시 지수면 지수로 460 ,128.269348696,35.232628076
청원경로당,경상남도 진주시 진주시 지수면 청원길 71 ,128.282609754,35.228971545
신당경로당,경상남도 진주시 진주시 지수면 금평로260번길 4 ,128.256666439,35.214213768
필동경로당,경상남도 진주시 진주시 지수면 지사로 690번길 4 ,128.247933600,35.223940604
송정경로당,경상남도 진주시 진주시 지수면 용봉로 173 ,128.254588425,35.235178478
송정학구경로당,경상남도 진주시 진주시 지수면 용봉로 208 ,128.251256429,35.235025377
세곡경로당,경상남도 진주시 진주시 지수면 지사로754번길 110 ,128.258351606,35.221884416
압현경로당,경상남도 진주시 진주시 지수면 용봉로150번길 134-5 ,128.249822046,35.242373272
동지경로당,경상남도 진주시 진주시 지수면 용봉로 756-4 ,128.214141963,35.253766205
안계경로당,경상남도 진주시 진주시 지수면 용봉로912번길 8 ,128.222986401,35.258729026
용봉경로당,경상남도 진주시 진주시 지수면 용봉로292번길 93 ,128.244807678,35.247712440
무등경로당,경상남도 진주시 진주시 지수면 청담길175번길 32 ,128.257420565,35.248706745
청담경로당,경상남도 진주시 진주시 지수면 청담길16번길 4(2층) ,128.273771524,35.247677221
덕암경로당,경상남도 진주시 진주시 지수면 지수로 595번길 69 ,128.267545938,35.241713440
대곡면경로당,경상남도 진주시 진주시 대곡면진의로1079번길 14-8 ,,
용암경로당,경상남도 진주시 진주시 대곡면 월암로456번길 30 ,128.161911507,35.319799247
덕촌경로당,경상남도 진주시 진주시 대곡면 월암로 457 ,128.160818519,35.317202995
월암경로당,경상남도 진주시 진주시 대곡면 월암로 352 ,128.165555003,35.308987032
상촌경로당,경상남도 진주시 진주시 대곡면 월암로153번길 12 ,128.164624208,35.292551292
설매경로당,경상남도 진주시 진주시 대곡면 월암로 83 ,128.165833262,35.286009591
광석경로당,경상남도 진주시 진주시 대곡면진의로 1180-6 ,,
유곡경로당,경상남도 진주시 진주시 대곡면 유곡로 341 ,128.156336228,35.264211193
석포경로당,경상남도 진주시 진주시 대곡면 유곡로 69 ,128.137823987,35.276078866
단목경로당,경상남도 진주시 진주시 대곡면 단목길 7 ,128.146263196,35.256180745
지내경로당,경상남도 진주시 진주시 대곡면 단목길 66 ,128.148587738,35.260766941
신흥경로당,경상남도 진주시 진주시 대곡면 신흥길1번길 7-4 ,128.139282238,35.258105250
월아경로당,경상남도 진주시 진주시 대곡면 월아길52번길 2 ,128.134615628,35.245626207
봉평경로당,경상남도 진주시 진주시 대곡면진의로964번길 5 ,,
송곡경로당,경상남도 진주시 진주시 대곡면 소실길 219 ,128.170659770,35.249042212
유동경로당,경상남도 진주시 진주시 대곡면 대화로105번길 93 ,128.182788992,35.269500515
가정경로당,경상남도 진주시 진주시 대곡면진의로864번길 3 ,,
중촌경로당,경상남도 진주시 진주시 대곡면진의로 738 ,,
오곡경로당,경상남도 진주시 진주시 대곡면진의로 650 ,,
덕곡경로당,경상남도 진주시 진주시 대곡면 덕곡길 147 ,128.184529613,35.225161762
마호경로당,경상남도 진주시 진주시 대곡면 마진한실로 209 ,128.218002346,35.218634352
마진경로당,경상남도 진주시 진주시 대곡면 마한로257번길 24 ,,
한실경로당,경상남도 진주시 진주시 대곡면 마진한실로 597 ,128.224112571,35.237338449
북창경로당,경상남도 진주시 진주시 대곡면 광석리 325-1 ,,
금산경로당,경상남도 진주시 진주시 금산면 중천로7번길 17 ,128.140745030,35.215765122
남성경로당,경상남도 진주시 진주시 금산면 금산순환로311번길 9 ,128.161623065,35.235794027
석교경로당,경상남도 진주시 진주시 금산면 금산순환로 168-2 ,128.151837682,35.228053782
관방경로당,경상남도 진주시 진주시 금산면 금산순환로402번길 18 ,128.163518517,35.230446138
용심경로당,경상남도 진주시 진주시 금산면 금산로 250 ,128.156102985,35.205618178
월아경로당,경상남도 진주시 진주시 금산면 달음산로53번길 36 ,128.174453817,35.201617981
갈전경로당,경상남도 진주시 진주시 금산면 갈전길 81 ,128.162482535,35.189077640
조동경로당,경상남도 진주시 진주시 금산면 갈전길 50 ,128.160208386,35.187062926
속사경로당,경상남도 진주시 진주시 금산면 속사길 88 ,128.145313912,35.187611000
송백경로당,경상남도 진주시 진주시 금산면 송백로 330 ,128.136414113,35.199021477
구암경로당,경상남도 진주시 진주시 금산면 월아산로1929번길 26 ,128.132090022,35.211790876
청천경로당,경상남도 진주시 진주시 금산면 청천길 14 ,128.133061065,35.214889151
중천경로당,경상남도 진주시 진주시 금산면 금산로57번길 7 ,128.142172263,35.214718782
금호경로당,경상남도 진주시 진주시 금산면 금산로 130( 금호맨션 1동 108호) ,128.149430117,35.212744132
상의경로당,경상남도 진주시 진주시 금산면 상의길 46 ,128.135582046,35.221409972
덕의경로당,경상남도 진주시 진주시 금산면 덕의길 117 ,128.139409209,35.225436331
덕정경로당,경상남도 진주시 진주시 금산면 금산순환로 109 ,128.150412393,35.223055102
현지경로당,경상남도 진주시 진주시 금산면 금산순환로76번길 1 ,128.150793766,35.219961429
사동경로당,경상남도 진주시 진주시 금산면 금산순환로 549 ,128.159005930,35.217254544
흥한골든빌A경로당,"경상남도 진주시 진주시 금산면 금산로 123, 3층(금산흥한골든빌) ",128.150104478,35.214807127
느티나무경로당,"경상남도 진주시 진주시 금산면 중천로 74,2층(느티나무A) ",128.144127481,35.217871226
금산아이파크경로당,경상남도 진주시 진주시 금산면 중천로 82(금산아이파크A) ,128.144333234,35.216639617
진주푸르지오1단지경로당,경상남도 진주시 진주시 금산면 덕의길 15(진주푸르지오1단지A) ,128.146711816,35.218699045
진주푸르지오2단지경로당,경상남도 진주시 진주시 금산면 덕의길 11-1(진주푸르지오2단지A) ,128.146598590,35.217993288
e-편한세상경로당,경상남도 진주시 진주시 금산면 금산순환로80번길 16(e편한세상A) ,128.151880319,35.219888279
두산위브경로당,경상남도 진주시 진주시 금산면 중장로154번길 49(두산위브A) ,128.148225242,35.219810803
진흥더루벤스경로당,경상남도 진주시 진주시 금산면 금산로 22(진흥더루벤스) ,128.139241028,35.213612608
지내경로당,경상남도 진주시 진주시 지내길 117번길 2 ,128.078865851,35.247012675
현동경로당,경상남도 진주시 진주시 지내길 217 ,128.088226271,35.243907827
봉강경로당,경상남도 진주시 진주시 진산로 645번길 26 ,128.089549790,35.237721961
원동경로당,경상남도 진주시 진주시 진주성로 735 ,128.070933775,35.243219862
사촌경로당,경상남도 진주시 진주시 진주성로 348번길 25 ,128.065981042,35.216389344
기동경로당,경상남도 진주시 진주시 진주성로 414번길 7-7 ,128.064916471,35.222721924
대암경로당,경상남도 진주시 진주시 진산로 1165번길 17 ,128.079541778,35.268311822
혈암경로당,경상남도 진주시 진주시 진산로 1034 ,128.072258399,35.259814478
정평경로당,경상남도 진주시 진주시 응석로 220 ,128.065982308,35.278608427
평방경로당,경상남도 진주시 진주시 응석로 95 ,128.071058347,35.268517452
정수경로당,경상남도 진주시 진주시 진산로1391번길 6-1 ,128.082354879,35.285578026
냉정경로당,경상남도 진주시 진주시 냉정길 267 ,128.097988245,35.257080863
장흥경로당,경상남도 진주시 진주시 진산로 487번길 11 ,128.099715509,35.229029790
월평경로당,경상남도 진주시 진주시 신당길50번길 18-1 ,128.104894068,35.225035896
신당경로당,경상남도 진주시 진주시 신당길 129 ,128.112698759,35.228769513
죽산경로당,경상남도 진주시 진주시 신당길 210 ,128.119681897,35.225403004
오동경로당,경상남도 진주시 진주시 향양로 89번길 38 ,128.125523457,35.244180671
덕오경로당,경상남도 진주시 진주시 향양로 75번길 18-3 ,128.127733449,35.242982523
불너머경로당,경상남도 진주시 진주시 불너머길 280번길 1 ,128.127847971,35.236103092
평촌경로당,경상남도 진주시 진주시 남강로 2042-4 ,128.136049278,35.239207932
덕성경로당,경상남도 진주시 진주시 향양로 217번길 62-2 ,128.115029023,35.253586487
금빛경로당,경상남도 진주시 진주시 진산로 675(금빛현대아파트) ,128.091235832,35.238156941
동향경로당,경상남도 진주시 진주시 향양로788번길 4 ,128.098970458,35.298040178
개심경로당,경상남도 진주시 진주시 향양로 666 ,128.106633041,35.289089665
장죽경로당,경상남도 진주시 진주시 향양로 576-1 ,128.110394906,35.281993508
반지경로당,경상남도 진주시 진주시 향양로 448 ,128.114598589,35.272006028
삭성경로당,경상남도 진주시 진주시 향양로365번길 24 ,128.114188365,35.265434433
오방경로당,경상남도 진주시 진주시 오방로 711 ,128.117380171,35.298192556
점촌경로당,경상남도 진주시 진주시 오방로 552 ,128.130412237,35.289718636
성호경로당,경상남도 진주시 진주시 오방로311번길 6 ,128.129170896,35.273581473
정호경로당,경상남도 진주시 진주시 오방로199번길 49 ,128.129524739,35.265131152
정별경로당,경상남도 진주시 진주시 오방로371번길 27 ,128.125413663,35.276524671
정성경로당,경상남도 진주시 진주시 오방로441번길 13 ,128.121550669,35.283355961
어옥경로당,경상남도 진주시 진주시 어옥로 178 ,128.136422430,35.305018052
덕진경로당,경상남도 진주시 진주시 널방재길195번길 31 ,128.147516755,35.299401067
대곡경로당,경상남도 진주시 진주시 상미로 469 ,128.142740665,35.340709932
기전경로당,경상남도 진주시 진주시 상미로 303 ,128.128933178,35.332745748
신촌경로당,경상남도 진주시 진주시 상미로 198 ,128.124479566,35.324309614
미곡경로당,경상남도 진주시 진주시 상미로 71 ,128.114561182,35.317125726
북동경로당,경상남도 진주시 진주시 오방로1088번길 42 ,128.094899324,35.319720954
내인경로당,경상남도 진주시 진주시 오방로 1099-4 ,128.090553329,35.317020643
내리실경로당,경상남도 진주시 진주시 진산로1623번길 12 ,128.078221260,35.306431449
임곡경로당,경상남도 진주시 진주시 미천면 안간길 70 ,128.083351927,35.316962437
정촌경로당,경상남도 진주시 진주시 효자길23번길 8 ,128.081258214,35.332307370
효자경로당,경상남도 진주시 진주시 효자길 158-1 ,128.068544734,35.330663579
관지경로당,경상남도 진주시 진주시 관덕길28번길 1,128.038720087,35.250387515
신촌경로당,경상남도 진주시 진주시 광제산로 283,128.044838398,35.239456779
신촌정자경로당,경상남도 진주시 진주시 남성로 33-5,128.048403309,35.237097304
삭평경로당,경상남도 진주시 진주시 광제산로108번길 5,128.042522663,35.225591763
왕지경로당,경상남도 진주시 진주시 남성로128번길 30,128.052587632,35.243192418
왕지동성경로당,경상남도 진주시 진주시 한치골길230번길 36-1,128.054310867,35.239180099
추동경로당,경상남도 진주시 진주시 남성로 217,128.054428541,35.251753397
남성경로당,경상남도 진주시 진주시 남성로 443,128.049955024,35.268136377
장흥경로당,경상남도 진주시 진주시 남성로689번길 99,128.056112069,35.289361636
덕곡경로당,경상남도 진주시 진주시 관덕길126번길 5,128.031535365,35.255499194
토담경로당,경상남도 진주시 진주시 관덕길187번길 24-2,128.031608882,35.262103680
계원경로당,경상남도 진주시 진주시 광제산로 650,128.043842009,35.270364306
계원갈전경로당,경상남도 진주시 진주시 관덕길261번길 9,128.039474512,35.261221945
홍지경로당,경상남도 진주시 진주시 광제산로 743,128.039178290,35.276820354
신기경로당,경상남도 진주시 진주시 광제산로 936,128.030638442,35.290920925
동전경로당,경상남도 진주시 진주시 광제산로 833번길 8,128.032638867,35.282506497
외율경로당,경상남도 진주시 진주시 외율길37,127.995098530,35.280985113
내율경로당,경상남도 진주시 진주시 외율길207번길7-1,,
팔미경로당,경상남도 진주시 진주시 팔미길13번길 25-8,127.997453316,35.257997073
내팔미경로당,경상남도 진주시 진주시 팔미길 135-43,128.001415731,35.263316480
오미경로당,경상남도 진주시 진주시 진주대로 2136-6,127.995247638,35.242160348
오미이주경로당,경상남도 진주시 진주시 진주대로2143번길 2-15,127.993691870,35.243493991
시목경로당,경상남도 진주시 진주시 진주대로2122번길 7-3,127.996423675,35.241461500
가화경로당,경상남도 진주시 진주시 가화로 393,127.999665195,35.215624275
서현경로당,경상남도 진주시 진주시 가화로 605,127.994327943,35.232476578
용산경로당,경상남도 진주시 진주시 진주대로1859번길 5,128.018690200,35.227607085
조비경로당,경상남도 진주시 진주시 진주대로1706번길 23,128.032460455,35.220938150
비실경로당,경상남도 진주시 진주시 진주대로1706번길 153,128.030057684,35.230794970
우수경로당,경상남도 진주시 진주시 진주대로1807번길 17,128.022710680,35.224184863
우수새마을경로당,경상남도 진주시 진주시 판문로575번길 26,128.028579606,35.217149826
나불경로당,경상남도 진주시 진주시 나불로 277-9,128.041461646,35.215508501
동신A경로당,경상남도 진주시 진주시 광제산로11-21,128.039463378,35.217716864
대평경로당,경상남도 진주시 진주시 대평면 한들길42번길 15 ,127.962050145,35.232823133
어은경로당,경상남도 진주시 진주시 대평면 한들길 42번길 5 ,127.961105884,35.232694525
하촌경로당,경상남도 진주시 진주시 대평면 호반로 975-34 ,127.963782771,35.197790781
사평경로당,경상남도 진주시 진주시 대평면 호반로 789-15 ,127.969749165,35.182110846
당촌경로당,경상남도 진주시 진주시 대평면 호반로 736 ,127.972705105,35.178841426
내촌경로당,경상남도 진주시 진주시 대평면 호반로486번길 21 ,127.988887532,35.165679796
신풍경로당,경상남도 진주시 진주시 대평면 신풍길 201 ,127.995053330,35.200563357
자매경로당,경상남도 진주시 진주시 수곡면 사곡로 699 ,127.932931851,35.244861417
월계경로당,경상남도 진주시 진주시 수곡면 곤수로1407번길 40 ,127.931963871,35.235331549
대우경로당,경상남도 진주시 진주시 수곡면 사곡로489번길 17 ,127.915333098,35.240511444
대각경로당,경상남도 진주시 진주시 수곡면 곤수로 1254 ,127.932413730,35.222782524
사곡경로당,경상남도 진주시 진주시 수곡면 사곡로128번길 20 ,127.922731361,35.215870093
덕곡경로당,경상남도 진주시 진주시 수곡면 사곡로90번길 11 ,127.926280432,35.212721408
구태경로당,경상남도 진주시 진주시 수곡면 사곡로213번길 42 ,127.911119687,35.216401686
사방경로당,경상남도 진주시 진주시 수곡면 시묘산길 96 ,127.921232908,35.201690826
대천경로당,경상남도 진주시 진주시 수곡면 옥수로 649-1(1층) ,127.930476531,35.198535709
금동경로당,경상남도 진주시 진주시 수곡면 옥수로637번길 46 ,127.927751026,35.201553965
직금경로당,경상남도 진주시 진주시 수곡면 옥수로555번길 7(1층) ,127.923897642,35.191783452
조계경로당,경상남도 진주시 진주시 수곡면 덕천로268번길 16 ,127.898954788,35.196935749
창촌경로당,경상남도 진주시 진주시 수곡면 옥수로 461 ,127.921533927,35.183759026
문정경로당,경상남도 진주시 진주시 수곡면 원창길336번길 8 ,127.927321395,35.179948207
효동경로당,경상남도 진주시 진주시 수곡면 곤수로865번길 66 ,127.933955388,35.188588708
중전경로당,경상남도 진주시 진주시 수곡면 중전길 192 ,127.953036727,35.194312496
요산경로당,경상남도 진주시 진주시 수곡면 곤수로898번길 3 ,127.938289759,35.194324516
효남경로당,경상남도 진주시 진주시 수곡면 곤수로 728(1층) ,127.944093670,35.179929844
원내경로당,경상남도 진주시 진주시 수곡면 곤수로 599 ,127.951761102,35.171091842
원당경로당,경상남도 진주시 진주시 수곡면 곤수로 556 ,127.954213284,35.167919493
서촌경로당,경상남도 진주시 진주시 수곡면 원창길4번길 37 ,127.949878641,35.168506370
원동경로당,경상남도 진주시 진주시 수곡면 곤수로514번길 60 ,127.960733600,35.165793335
원외경로당,경상남도 진주시 진주시 수곡면 원외길123번길 3 ,127.945743688,35.157978211
신촌경로당,경상남도 진주시 진주시 수곡면 원창길 93 ,127.944731312,35.164558463
광명경로당,경상남도 진주시 진주시 수곡면 원외길22번길 17 ,127.953351870,35.159432388
원계경로당,경상남도 진주시 진주시 수곡면 덕천로504번길 6 ,127.895904359,35.215886875
도량경로당,경상남도 진주시 진주시 수곡면 시묘산길 339 ,127.900039991,35.211325149
동월경로당,경상남도 진주시 진주시 수곡면 덕천로 574 ,127.894998735,35.221504915
천전경로당,경상남도 진주시 진주시 천수로237번길 7-8(망경동) ,128.078770437,35.183334620
제일경로당,경상남도 진주시 진주시 망경로295번길 8-1(강남동) ,128.085257092,35.186150009
한보타운경로당,"경상남도 진주시 진주시 망경로 234-7,1층(망경동,망경한보A) ",128.079739968,35.182127736
강남경로당,경상남도 진주시 진주시 진주대로929번길 10-3(강남동) ,128.088464934,35.182552605
동성가든타워경로당,"경상남도 진주시 진주시 진주대로 901,1층(강남동,동성가든타워) ",128.089359440,35.180955668
대경강남타운경로당,"경상남도 진주시 진주시 진주대로891번길 16(강남동,대경강남타운) ",128.089486673,35.180269039
남가람경로당,경상남도 진주시 진주시 강남로255번길 9-11(칠암동) ,128.089837683,35.187486711
주약현대A경로당,"경상남도 진주시 진주시 진주대로815번길 11,1층(주약동,주약현대A) ",128.093063367,35.173183624
남부경로당,경상남도 진주시 진주시 강남로177번길 14-6(칠암동) ,128.093661756,35.184089101
남강경로당,경상남도 진주시 진주시 동진로49번길 12(칠암동) ,128.096431318,35.180042914
칠암경로당,경상남도 진주시 진주시 동진로50번길 9-2(칠암동) ,128.096799507,35.178226029
금호석류마을경로당,"경상남도 진주시 진주시 강남로 45(주약동,금호석류마을) ",128.094526554,35.173182372
대덕A경로당,"경상남도 진주시 진주시 진주대로942번길 16(칠암동,칠암대덕A) ",128.089921571,35.184395803
망경경로당,경상남도 진주시 진주시 봉수대길5번길 3(망경동) ,128.082737976,35.181667823
동신A경로당,"경상남도 진주시 진주시 망진산길 32(망경동,망경동신A) ",128.081543179,35.179975595
이화A경로당,"경상남도 진주시 진주시 망경남길 31(망경동,이화A) ",128.084012644,35.181272605
주경경로당,경상남도 진주시 진주시 천수로 126-3(주약동) ,128.087089220,35.176589384
삼환나우빌A경로당,"경상남도 진주시 진주시 진주대로829번길 21(주약동,삼환나우빌) ",128.091485094,35.173455183
주동경로당,경상남도 진주시 진주시 진주대로829번길 6-7(주약동) ,128.092404871,35.174753621
주약경로당,경상남도 진주시 진주시 주약약골길 25-4(주약동) ,128.089467112,35.170595968
한주럭키타운경로당,"경상남도 진주시 진주시 진주대로 859(주약동,한주럭키A) ",128.090557202,35.177651778
한주한보타운경로당,"경상남도 진주시 진주시 망경로296번길 17(강남동,한주한보타운) ",128.086279837,35.184095124
주약한보은빛마을경로당,"경상남도 진주시 진주시 진주대로 789(주약동,주약한보은빛마을) ",128.094402226,35.171273466
진주일동미라주경로당,"경상남도 진주시 진주시 진주대로 891번길 56, 3층 ",128.088262684,35.183848075
인사경로당,경상남도 진주시 진주시 진주시 촉석로 70-2 ,128.070553479,35.191543073
서부경로당,경상남도 진주시 진주시 진주시 남강로 629-7 ,128.080168994,35.191162734
남성경로당,경상남도 진주시 진주시 진주시 진양호로428 3-1 ,128.073647976,35.189269994
일심경로당,경상남도 진주시 진주시 진주시 진양호로428 3-1 ,128.073647976,35.189269994
봉곡경로당,경상남도 진주시 진주시 진주시 북장대로60번길 13 ,128.074700124,35.195679425
중안경로당,경상남도 진주시 진주시 진주시 비봉로39번길 2-4 ,128.080344977,35.194203422
오죽경로당,경상남도 진주시 진주시 진주시 북장대로35번길 12 ,128.073065258,35.193185082
옥남경로당,경상남도 진주시 진주시 진양호로625번길 9(옥봉동),128.092630482,35.192330924
옥수경로당,"경상남도 진주시 진주시  향교로109번길 41-2,2층(옥봉동)",128.096288404,35.198094021
진주경로당,경상남도 진주시 진주시  옥봉길 19(옥봉동),128.089080896,35.196633014
남강한주아파트경로당,"경상남도 진주시 진주시  남강로736번길 6-3, 3층 (옥봉동,남강한주타운)",128.091866691,35.190838937
장대경로당,경상남도 진주시 진주시  장대로20번길 6-7(장대동),128.089471553,35.193743161
옥봉금산경로당,"경상남도 진주시 진주시  향교로90번길 4,1.2층(옥봉동)",128.090769809,35.197444781
봉래경로당,경상남도 진주시 진주시  의병로229번길 6-2(봉래동),128.083278596,35.200885608
수정경로당,경상남도 진주시 진주시  촉석로217번길 16-5(수정동),128.085457276,35.197236588
대림아파트경로당,"경상남도 진주시 진주시  향교로115번길 10(옥봉동,대림A)",128.093912286,35.195722168
옥봉LH아파트경로당,"경상남도 진주시 진주시 진산로 20,진주옥봉LH아파트",128.093553608,35.193447452
상봉동동경로당,경상남도 진주시 진주시 비봉로 102-5(상봉동) ,,
봉양경로당,경상남도 진주시 진주시 북장대로108번길 4-1(상봉동) ,128.072190344,35.199365804
상봉2A경로당,"경상남도 진주시 진주시 진주성로147번길 10(상봉동,상봉2주공A) ",128.072527944,35.202882866
못안경로당,경상남도 진주시 진주시 진주성로199번길 11-5(상봉동) ,128.073032933,35.205227855
한마음경로당,경상남도 진주시 진주시 진주성로99번길 10-4(상봉동) ,128.074842408,35.198440151
상봉한주타운경로당,"경상남도 진주시 진주시 진주대로1208번길 16(상봉동,상봉한주타운) ",128.070898299,35.195583084
목련경로당,"경상남도 진주시 진주시 창렬로 129, 2층(상봉동,상봉A) ",128.071903041,35.198716994
상봉A경로당,"경상남도 진주시 진주시 창렬로 129, 2층(상봉동,상봉A) ",128.071903041,35.198716994
대룡골경로당,경상남도 진주시 진주시 상봉대룡길5번길 12-11(상봉동) ,128.067468475,35.200561626
화인A경로당,"경상남도 진주시 진주시 상봉대룡길 18(상봉동,화인A) ",128.068471387,35.202261317
푸른마을경로당,"경상남도 진주시 진주시 상봉대룡길 37(상봉동,에스디푸른마을A) ",128.067519003,35.202797476
대봉경로당,경상남도 진주시 진주시 북장대로 70번길3 ,128.073146835,35.196272740
모덕경로당,경상남도 진주시 진주시 모덕로 64번길 10-3 ,128.104170133,35.181428668
진광경로당,경상남도 진주시 진주시 선학산길29번길 15-5 ,128.109399593,35.186228514
상대경로당,경상남도 진주시 진주시 모덕로 129 ,128.111524149,35.183890903
선학경로당,경상남도 진주시 진주시 모덕로 181번길 7 ,128.112609652,35.186828325
상대2동경로당,경상남도 진주시 진주시 대신로275번길 16-3 ,128.115491640,35.185262367
상대한보경로당,경상남도 진주시 진주시 도동천로 120 ,128.113470057,35.181711598
상대한주그린경로당,경상남도 진주시 진주시 선학산길 48 ,128.110369977,35.185951824
상대굥원경로당,경상남도 진주시 진주시 상대로 59-8 ,128.118549503,35.184929855
강나루경로당,경상남도 진주시 진주시 동진로102번길 5-4 ,128.102504048,35.178655186
모자경로당,경상남도 진주시 진주시 모덕로197번길 21 ,128.115408872,35.189813073
하대본동경로당,경상남도 진주시 진주시 모덕로197번길 6 ,128.115486302,35.189077133
도동대림아파트경로당,경상남도 진주시 진주시 하대로40번길 4 ,128.114732633,35.192385972
뒷골경로당,경상남도 진주시 진주시 하대로34번길 18-25 ,128.113620775,35.192993033
일신아파트경로당,경상남도 진주시 진주시 하대로34번길 10 ,128.114371026,35.193218023
도동경로당,경상남도 진주시 진주시 모덕로233번길 20 ,128.119534069,35.190491498
지동경로당,경상남도 진주시 진주시 말티고개로118번길 13 ,128.114094676,35.195291849
대영아파트경로당,경상남도 진주시 진주시 말티고개로 102-5 ,128.112233410,35.196211688
한보3차경로당,"경상남도 진주시 진주시 남강로 1399(하대동, 한보3차아파트) ",128.128248729,35.185980977
하대대림경로당,"경상남도 진주시 진주시 도동천로310(하대동, 하대대림아파트) ",128.127527606,35.194379290
하대현대경로당,"경상남도 진주시 진주시 하대로 142(하대동, 현대아파트) ",128.125642154,35.192261192
삼전1차경로당,"경상남도 진주시 진주시 남강로1467(하대동, 삼전1차) ",,
하대경로당,경상남도 진주시 진주시 모덕로394번길 11-3 ,,
한보타워맨션경로당,"경상남도 진주시 진주시 모덕로306번길 2(하대동, 한보타워맨션) ",128.126731710,35.188805594
한보힐타워경로당,"경상남도 진주시 진주시 상대로143번길 11-2(하대동, 한보힐타워) ",128.127204162,35.186091352
상대주공아파트경로당,"경상남도 진주시 진주시 상대로 101, 상가2층(하대동, 상대주공아파트) ",128.123654118,35.184784935
하대주공아파트경로당,"경상남도 진주시 진주시 상대로 125, 상가2층(하대동, 하대주공아파트) ",128.125453180,35.184867546
삼전프라자아파트경로당,경상남도 진주시 진주시 도동로 251(하대동) ,128.121256146,35.192948932
상평동동경로당,경상남도 진주시 진주시 큰들로 184-1(상평동) ,128.122904982,35.171239834
상평서동경로당,"경상남도 진주시 진주시 남강로1117번길 20,1,2층(상평동) ",128.114307981,35.169714523
동국제2강변타워경로당,"경상남도 진주시 진주시 돗골로19번길 12,2층(상평동,동국제2강변타워) ",128.111615317,35.169933902
동국제1강변타워경로당,"경상남도 진주시 진주시 큰들로66번길 12(상평동,동국제1강변타워) ",128.109561065,35.170105866
상평동일스위트경로당,"경상남도 진주시 진주시 공단로 30(상평동,상평동일스위트) ",128.102412853,35.174668084
대림A경로당,"경상남도 진주시 진주시 남강로 951(상평동,대림A) ",128.100428747,35.174531641
진주센트럴자이A경로당,"경상남도 진주시 진주시 도동천로48(상평동,진주센트럴자이A) ",,
송림경로당,경상남도 진주시 진주시 솔밭로 76-1(상평동) ,128.107443821,35.175917988
동신A경로당,"경상남도 진주시 진주시 돗골로117번길 15(상평동,동신A) ",128.110708536,35.178516148
돗골경로당,경상남도 진주시 진주시 돗골로94번길 17-10 ,128.114287521,35.177236515
중촌경로당,"경상남도 진주시 진주시 하촌로196번길 19-4,2층(하촌동) ",128.081348905,35.216399041
하촌경로당,경상남도 진주시 진주시 하촌로96번길 49(하촌동) ,128.090069409,35.216511049
장재경로당,경상남도 진주시 진주시 진산로 339-2(장재동) ,128.101358508,35.215890471
천곡경로당,경상남도 진주시 진주시 장재새미길 21(장재동) ,128.099719435,35.208371637
초북경로당,경상남도 진주시 진주시 초전북로19번길 5-2(초전동) ,128.108573245,35.207752126
초남경로당,"경상남도 진주시 진주시 대신로475번길 7,2층(초전동) ",128.115440174,35.202567599
모퉁이마을경로당,경상남도 진주시 진주시 초전남로39번길2(초전동) ,128.113550392,35.199668171
일동A경로당,"경상남도 진주시 진주시 초전북로 20(초전동,초전일동A) ",128.109359908,35.207724713
초전대림경로당,"경상남도 진주시 진주시 말띠고개로 113(초전동,초전대림A) ",,
청구A경로당,경상남도 진주시 진주시 대신로475번길 16-5(초)(1층) ,128.112501859,35.203061797
초전현대A(2단지)경로당,"경상남도 진주시 진주시 초전남로 46(초전동,현대A) ",128.113653307,35.201053545
현대A1단지경로당,"경상남도 진주시 진주시 초전남로 60(초전동,현대A) ",128.113337804,35.202054645
초전흥한A경로당,"경상남도 진주시 진주시 초전남로 30(초전동,초전흥한A) ",128.114487222,35.198701184
초전푸르지오1단지경로당,"경상남도 진주시 진주시 초장로14번지 27(초전동,초전푸르지오1단지) ",128.113636744,35.203764393
초전푸르지오2단지경로당,"경상남도 진주시 진주시 초장로14번길 29(초전동,초전푸르지오2단지) ",128.112761059,35.206003946
해모로루비채4단지경로당,"경상남도 진주시 진주시 초북로 55(초전동,초전해모루루비채4단지) ",128.108683438,35.212094680
진주초장엠코타운경로당,"경상남도 진주시 진주시 초북로 77(초전동,진주초장엠코타운더이스턴파크) ",128.107602928,35.212663463
이지더원경로당,"경상남도 진주시 진주시 초장로120(초전동,이지더원) ",128.109177633,35.210676070
덕곡경로당,경상남도 진주시 진주시 석갑로142번길 26(신안동) ,128.065738127,35.182691053
그린타운경로당,"경상남도 진주시 진주시 석갑로156번길 19(신안동,그린타운) ",128.064388596,35.182971615
국제A경로당,"경상남도 진주시 진주시 석갑로 138(신안동,신안국제맨션) ",128.063682219,35.182002976
신흥경로당,경상남도 진주시 진주시 석갑로89번길 3-4(신안동) ,128.061516476,35.178005640
샛터경로당,"경상남도 진주시 진주시 진양호로239번길 12-10,1층2층(평거동) ",128.061160096,35.176201016
평거하우스토리경로당,"경상남도 진주시 진주시 진양호로239번길 13(평거동,평거하우스토리) ",128.060472873,35.175617162
한보하이타운경로당,"경상남도 진주시 진주시 순환로553번길 7,3층(평거동,한보하이타운) ",128.059186565,35.172624530
평거주공1차A경로당,"경상남도 진주시 진주시 진양호로185번길 7(평거동,주공1차A) ",128.057313355,35.171620024
신안주공2차A경로당,"경상남도 진주시 진주시 신안들말길 47(신안동,주공2차A) ",128.067194235,35.178183237
신안주공2차A할머니경로당,"경상남도 진주시 진주시 신안들말길 47,2층(신안동,주공2차A) ",128.067194235,35.178183237
신안주공3차A경로당,"경상남도 진주시 진주시 석갑로 58,3층(신안동,주공3차A) ",128.064805099,35.178429768
들말대경A경로당,"경상남도 진주시 진주시 석갑로53번길 10(평거동,들말대경A) ",128.062666569,35.175307800
들말흥한A경로당,"경상남도 진주시 진주시 석갑로 45(평거동,들말흥한A) ",128.064247577,35.175967068
들말한보A경로당,"경상남도 진주시 진주시 평거로39번길 9,2층(평거동,들말한보A) ",128.063410126,35.174352205
신안주공1차A경로당,"경상남도 진주시 진주시 신안들말길 17(신안동,주공1차) ",128.069722009,35.177740730
휴먼시아3단지경로당,"경상남도 진주시 진주시 새평거로 111(평거동,평거휴먼시아3단지) ",128.059099890,35.169538315
대경그린파크경로당,"경상남도 진주시 진주시 순환로573번길 21(평거동,대경그린파크) ",128.057624530,35.173252891
엘크루경로당,경상남도 진주시 진주시 새평거로 112 ,128.059288590,35.169051228
숯골경로당,경상남도 진주시 진주시 진주시 석갑로 115-4(신안동),128.062522988,35.180714723
건영아모리움아파트경로당,경상남도 진주시 진주시 진주시 진양호로225번길 13,128.059627620,35.174441134
신안경로당,경상남도 진주시 진주시 신안로126번길12 ,128.069685720,35.188600010
천수경로당,경상남도 진주시 진주시 남강로543번길 25-1 ,128.072306826,35.187193017
현대아파트경로당,경상남도 진주시 진주시 천수로 315 ,128.071384011,35.184679397
한보타워경로당,경상남도 진주시 진주시 남강로491번길 12 ,128.072628551,35.182609253
한주파크경로당,경상남도 진주시 진주시 남강로 479 ,128.072342544,35.181267845
신안1차흥한타운경로당,경상남도 진주시 진주시 진양호로328번길 4 ,128.066980126,35.181499169
흥한2차아파트경로당,경상남도 진주시 진주시 평거로139번길11-3 ,128.068946905,35.181323616
평거1차현대아파트경로당,경상남도 진주시 진주시 평거로115번길 5 ,128.068818027,35.180308756
평거2차현대아파트경로당,경상남도 진주시 진주시 신안들말길 58 ,128.067168291,35.181079730
녹지경로당,경상남도 진주시 진주시 신안들말길10번길 17-1 ,128.070341025,35.179431640
유곡경로당,경상남도 진주시 진주시 유곡죽전길 26(유곡동) ,128.067530833,35.195294627
유곡한보A경로당,"경상남도 진주시 진주시 진주대로 1278(유곡동,유곡한보A) ",128.063474641,35.194412134
버드골경로당,경상남도 진주시 진주시 진주대로1310번길 9(유곡동) ,128.060037854,35.195118305
유현경로당,경상남도 진주시 진주시 나불로8번길 48(유곡동) ,128.055949221,35.201054378
각한경로당,경상남도 진주시 진주시 나불로100번길 13(유곡동) ,128.056219057,35.206397678
나부리경로당,경상남도 진주시 진주시 나불로 178-1(유곡동) ,128.049797117,35.210829268
이현북동경로당,경상남도 진주시 진주시 이현두곡길 53-3(이현동) ,128.051540383,35.193147187
면호실경로당,경상남도 진주시 진주시 나불로21번길 130(이현동) ,128.044916064,35.202672311
이현A경로당,"경상남도 진주시 진주시 서장대로 235(이현동,주공A) ",128.059788211,35.191375963
촉석경로당,경상남도 진주시 진주시 평거로264번길 16-1(이현동) ,128.064577815,35.191048041
덕산A경로당,"경상남도 진주시 진주시 서장대로178번길 17(이현동,진주덕산A) ",128.059430167,35.187508276
이현남동경로당,경상남도 진주시 진주시 숙호산로 58-5(이현동) ,128.061396280,35.186474359
이현웰가경로당,"경상남도 진주시 진주시 진주대로 1317(이현동,이현하이클래스웰가) ",128.057962952,35.194354140
만물도랑경로당,경상남도 진주시 진주시 평거로284번길 6(이현동) ,128.062562681,35.192412300
판문본동경로당,경상남도 진주시 진주시 진양호로143번길 10(평거동) ,128.054624674,35.169709640
하영무지개경로당,"경상남도 진주시 진주시 진양호로 153(평거동,하영무지개맨션) ",128.055260873,35.169734722
벽산동신2A경로당,"경상남도 진주시 진주시 진양호로125번길 22-12(평거동,벽산동신A) ",128.052517754,35.170703350
조라골경로당,"경상남도 진주시 진주시 진양호로125번길 27,평거제1어린이공원내(평거동) ",128.051999413,35.170075801
하영그린경로당,"경상남도 진주시 진주시 진양호로97번길 8-3(평거동,하영그린맨션) ",128.050689796,35.168162665
국민주택경로당,"경상남도 진주시 진주시 진양호로97번길 20(평거동,국민주택A) ",128.050742433,35.168987544
평거한보A경로당,"경상남도 진주시 진주시 진양호로97번길 19-6(평거동,한보타운) ",128.049627806,35.169791445
판문새동네경로당,경상남도 진주시 진주시 진양호로79번길 12(판문동) ,128.048092382,35.167966295
판문현대A경로당,"경상남도 진주시 진주시 진양호로51번길 6-7(판문동,현대A) ",128.046720752,35.168053157
판문남동경로당,경상남도 진주시 진주시 판문로 55(판문동) ,128.043399914,35.172125017
판문오동경로당,경상남도 진주시 진주시 판문오동길 55-11(판문동) ,128.041213568,35.171935206
판문샛터경로당,경상남도 진주시 진주시 판문로229번길 11(판문동) ,128.037764697,35.186726699
상촌복지경로당,경상남도 진주시 진주시 판문로406번길 9-1(판문동) ,128.033931414,35.202880430
중촌복지경로당,경상남도 진주시 진주시 판문로358번길 4-1(판문동) ,128.034578379,35.197656767
