시설명,주소,경도,위도
창원경상국립대학교병원,"창원시 성산구 삼정자로 11 (성주동, 창원경상대학교병원)",128.707926040,35.199223969
근로복지공단 창원병원,창원시 성산구 창원대로 721 (중앙동),128.671707960,35.218271478
경상남도마산의료원,창원시 마산합포구 3·15대로 231 (중앙동3가),128.565560868,35.199152773
경상국립대학교병원,진주시 강남로 79 (칠암동),128.095092777,35.176292771
양산부산대학교병원,양산시 물금읍 금오로 20,129.005528310,35.326887852
해군해양의료원,창원시 진해구 진해대로963번길 35 (자은동),128.712909452,35.146320195
공군교육사 기지병원,진주시 금산면 송백로 46,,
통영적십자병원,통영시 중앙로 97,128.419842373,34.842411869
거창적십자병원,거창군 거창읍 중앙로 91,127.908920551,35.686927177
양산부산대학교치과병원,양산시 물금읍 금오로 20,129.005528310,35.326887852
양산부산대학교한방병원,양산시 물금읍 금오로 20 (양산부산대학교병원),129.006409003,35.328773998
시립창원요양병원,창원시 의창구 북면 단내로 499-32,128.574296230,35.349353025
시립마산요양병원,창원시 마산합포구 현동로 15 (우산동),128.551864075,35.154004381
의료법인 행복한의료재단 경남도립사천노인전문병원,사천시 축동면 서삼로 1110-35,128.044443286,35.093509132
경상남도립양산노인전문병원,양산시 상북면 양산대로 1870-64,129.071190534,35.429837814
의령군립노인전문병원,의령군 부림면 대한로 1655,128.313185888,35.464617306
남해군립노인전문병원,남해군 남해읍 화전로 ,127.893700056,34.838562738
국립마산병원,"창원시 마산합포구 가포로 215 (가포동, 국립마산병원)",128.566117005,35.168435403
국립부곡병원,창녕군 부곡면 부곡로 145,128.613583966,35.435184907
해군해양한의원,"창원시 진해구 진해대로963번길 35, 해군해양의료원 (자은동)",128.712909452,35.146320195
경남지방병무청,창원시 성산구 중앙대로250번길 13 (신월동),128.691155444,35.234153909
진주교도소부속의원,진주시 대곡면 월암로23번길 39,,
진주교도소부속치과의원,진주시 대곡면 월암로23번길 39,,
통영구치소 부속의원,통영시 용남면 용남해안로 277,,
공군 제3훈련비행단 항공의무대대,사천시 사천읍 사천대로 1949(사서함336-17호),,
밀양구치소 부설의원,밀양시 부북면 춘화로 124,,
제39보병사단 의무근무대,함안군 군북면 함마대로 848,,
거창구치소 부속의원,"거창군 거창읍 거열산성로 73, 거창구치소",127.894348666,35.692129060
창원한마음병원,창원시 의창구 용동로57번길 8 (사림동),128.698677404,35.237961418
창원파티마병원,창원시 의창구 창이대로 45 (명서동),128.646764907,35.237454893
의료법인청아의료재단청아병원,창원시 마산회원구 내서읍 광려천서로 67 (청아병원),128.509615036,35.247990560
의료법인합포의료재단에스엠지연세병원,"창원시 마산합포구 3·15대로 76 (월남동2가, 합포의료재단)",128.561596727,35.186299129
의료법인석영의료재단창원제일종합병원,창원시 마산합포구 3·15대로 238 (중앙동3가),128.567655977,35.199252306
학교법인성균관대학삼성창원병원,"창원시 마산회원구 팔용로 158 (합성동, 삼성창원병원)",128.591172840,35.242452215
연세에스병원,창원시 진해구 해원로32번길 13 (이동),128.698414702,35.154720171
한일병원,"진주시 범골로 17, 한일병원 지하1, 1~7층 (충무공동)",128.128569244,35.166977195
진주고려병원,진주시 동진로 2 (칠암동),128.092040295,35.178621885
제일병원,진주시 진주대로 885 (강남동),128.090517091,35.179392775
새통영병원,통영시 무전7길 192,128.420655863,34.865386225
강일병원,김해시 가락로 359 (구산동),128.869603254,35.256698298
의료법인환명의료재단 조은금강병원,김해시 김해대로 1814-37 (삼계동),128.861525278,35.262180281
의료법인숭인의료재단 김해복음병원,김해시 활천로 33 (삼정동),128.893053742,35.230764302
의료법인보원의료재단 경희대학교 교육협력 중앙병원,김해시 분성로 94-8 (외동),128.857092982,35.230804859
의료법인갑을의료재단 갑을장유병원,김해시 장유로 167-13 (부곡동),128.805611933,35.208663980
의료법인 성념의료재단맑은샘병원,거제시 연초면 거제대로 4477,128.643652074,34.897780199
의료법인 대우의료재단대우병원,거제시 두모길 16 (두모동),128.722071482,34.871920800
의료법인 거붕 백병원,거제시 계룡로5길 14 (상동동),128.626042504,34.873627245
베데스다복음병원,양산시 신기로 28 (신기동),129.043611974,35.353245012
웅상중앙병원,양산시 서창로 59 (명동),129.164518523,35.406318672
창원튼튼i병원,창원시 의창구 원이대로 53 (도계동),128.634406475,35.257663457
바른병원,"창원시 성산구 창원천로94번길 82-18, 푸른요양병원(A동) (대원동)",128.658440801,35.237229165
더서울병원,창원시 의창구 천주로 14(서상동),128.618521099,35.263164008
창원더키움병원,"창원시 의창구 중동중앙로 95, 2층, 3층일부, 5~7층 (중동)",128.628810929,35.259493625
의료법인승현의료재단 심산서울병원,"창원시 의창구 평산로 96, 웰빙프라자 4-5층 (팔용동)",128.619571757,35.251668986
화사랑병원,"창원시 의창구 용동로83번안길 3, 화사랑메디컬 3-5층 (사림동)",128.700545844,35.238873117
구트병원,"창원시 성산구 원이대로 578, 구트병원빌딩 6층,8-12층 (중앙동)",128.677949856,35.228369434
굿모닝내과병원,창원시 의창구 사화로 6 (팔용동),128.608641516,35.257259836
의료법인 상원의료재단 창원힘찬병원,창원시 의창구 의창대로 45 (소계동),128.605881649,35.255898971
the큰병원,"창원시 의창구 우곡로217번길 10 (명서동, 지하1,2층지상2,3,4,5,6,7,8층)",128.648798392,35.239727782
모란여성병원,"창원시 성산구 마디미서로 56 (상남동, 2,3,4,5,6,7,10층)",128.680701765,35.220636868
메트로병원,창원시 의창구 평산로219번길 3 (중동),128.625806641,35.260872916
상남굿모닝내과병원,"창원시 성산구 상남로 73 (상남동, 서울메디컬빌딩6,7층)",128.679868854,35.220636590
씽씽(singsing)병원,"창원시 성산구 중앙대로 104, 마이우스빌딩 301.201-2호 (상남동)",128.680927665,35.223474669
허&리병원,"창원시 의창구 지귀로 6 (봉곡동, 1,2,3,5,6층)",128.648889722,35.243944296
서울패밀리병원,"창원시 성산구 마디미서로 54, 서울아동병원(2,7,8,9,11,12층) (상남동)",128.680885890,35.220840872
창원중앙병원,창원시 성산구 대암로 40-4 (남양동),128.700705113,35.213950313
윤병원,창원시 의창구 서상로12번길 57 (서상동),128.620563959,35.261970272
홍익재활병원,창원시 성산구 신촌로134번길 43 (신촌동),128.624298030,35.196607915
의료법인신화성의료재단 잘본병원,창원시 마산회원구 합포로 285(양덕동),128.587087774,35.222931722
키즈웰소아청소년과병원,"창원시 마산회원구 용마로 130, 메트로센텀 5,11층 (양덕동)",128.586123448,35.223620035
양덕서울아동병원,창원시 마산회원구 양덕로 190 (석전동),128.580409698,35.234273205
서울병원,창원시 마산회원구 3·15대로 653 (석전동),128.576881037,35.231654441
신마산서울아동병원,"창원시 마산합포구 문화동15길 25 (창포동3가, 롯데빌리지)",128.560967837,35.181762653
베스트수병원,"창원시 마산회원구 양덕로 190 (석전동, 바른몸빌딩)",128.580409698,35.234273205
은혜병원,"창원시 마산합포구 해안대로 331 (남성동, 한백웨딩프라자)",128.576467827,35.201627982
365병원,창원시 마산회원구 3·15대로 686 (석전동),128.579482272,35.233757476
의료법인우암의료재단 진동태봉병원,"창원시 마산합포구 동전고개로 2, 진동태봉병원",128.511009098,35.145414092
참여성병원,"창원시 마산합포구 불종거리로 19 (동성동, 참여성병원)",128.576257536,35.206083048
삼일정풍병원,"창원시 마산합포구 3·15대로 162 (중앙동2가, 삼일정풍병원)",128.565319691,35.192606761
무룹병원,"창원시 마산합포구 3·15대로 243 (중앙동3가, 무룹병원)",128.567077449,35.200015317
서울아동병원,창원시 마산회원구 내서읍 삼계로 2 (삼계웰빙프라자빌딩),128.504442399,35.232377679
하나병원,창원시 마산합포구 합포로 110 (오동동),128.581898986,35.208048141
동마산병원,"창원시 마산회원구 3·15대로 681 (석전동, 동마산병원)",128.578327602,35.233872729
미소안재활병원,"창원시 마산회원구 3·15대로 775 (합성동, 합성메디칼센타)",128.584060123,35.240971508
의료법인위더스의료재단위더스병원,창원시 마산합포구 동서동2길 45 (신포동2가),128.572801868,35.202299388
다나병원,"창원시 진해구 진해대로1026번길 4, 더연리지 301,401호 (풍호동)",128.707118048,35.138062419
진해성모병원,"창원시 진해구 행암로 12, 엠에스빌딩 5,6층 (장천동)",128.708117107,35.130417499
희망병원,"창원시 진해구 용원로 15 (용원동, 희망병원)",128.811069358,35.100441770
우리병원,"창원시 진해구 용원로 13, 2,3,5층 (용원동)",128.810791068,35.100498093
의료법인 심연의료재단 세명병원,창원시 진해구 용원서로 42 (용원동),128.813520479,35.101298019
의료법인염광의료재단세광병원,창원시 진해구 중원동로 55-1 (중앙동),128.660928926,35.149755024
예인여성병원,창원시 진해구 진해대로 958 (자은동),128.706872210,35.144242163
서울아동병원,"창원시 진해구 진해대로776번길 27, 4,7,8층 (이동)",128.698396274,35.156159030
김취열기념의료재단 프라임병원,"진주시 명석면 나불로 305, 지하1층-지상8층",128.038817004,35.214695731
예담소아청소년과병원,"진주시 충의로 20-33, 2층 (충무공동)",128.148236660,35.175676674
의료법인 우람의료재단 세종병원,"진주시 동진로 111 (상대동, 디럭스타워 7-9층)",128.103501442,35.179654003
의료법인 행복한의료재단 센텀병원,"진주시 진주대로941번길 8, 1,2층 (강남동)",128.087658265,35.184235115
튼튼소아청소년과병원,"진주시 진양호로 206, BYC 진주빌딩 (평거동)",128.060080189,35.172581153
진주본병원,"진주시 진양호로 206, BYC 진주빌딩 4,5,6,7층 (평거동)",128.060080189,35.172581153
서울아동병원,"진주시 하대로 80, 2층,3층,5층 (하대동, 메디칼팜빌딩)",128.120368048,35.192903318
의료법인 바른의료재단 바른병원,진주시 동진로 7 (칠암동),128.091688645,35.179206849
진주미래여성병원,진주시 진주대로 957 (강남동),128.087334720,35.185253173
진주세란병원,진주시 진주대로 829 (주약동),128.093170799,35.174369660
진주복음병원,진주시 진양호로 370 (신안동),128.069384911,35.185382813
반도병원,진주시 남강로 701 (장대동),128.088159816,35.191782662
통영고려병원,통영시 중앙로 310,128.428835029,34.857892882
서울아동병원,"통영시 중앙로 334-1, 4~9층",128.429173271,34.860065111
통영서울병원,통영시 광도면 남해안대로 857,128.415510024,34.869974928
신세계로병원,통영시 정동2길 58,128.430319842,34.843737551
의료법인승연의료재단 삼천포서울병원,사천시 남일로 33 (동금동),128.080251827,34.933402091
사천서울아동병원,사천시 사천읍 선평길 17 (서울아동병원),128.091421947,35.080148281
삼천포제일병원,"사천시 중앙로 136 (벌리동, 삼천포제일병원)",128.079512953,34.937538870
하나병원,"사천시 사천읍 진삼로 1468-8, 하나병원",128.086488346,35.082218567
더프라임병원,"김해시 경원로55번길 12, 1층~5층,9층 (내동)",128.866609768,35.238235021
김해바른병원,"김해시 가락로 42, 4~7층 (부원동)",128.882430322,35.230273763
더(the)큰병원,"김해시 분성로 208, 3~10층 (외동)",128.869597256,35.230209042
우리여성병원,김해시 내외중앙로 91 (내동),128.867014594,35.238183493
아이사랑병원,김해시 활천로 22 (삼정동),128.893990051,35.229469898
삼성아동병원,"김해시 삼계중앙로 36, 6~8층 (삼계동)",128.868982310,35.260258945
의료법인 신의료재단 김해삼승병원,김해시 김해대로 2335 (부원동),128.882335842,35.226639311
(의)경빈의료재단 김해센텀병원,"김해시 구지로 56, 김해센텀병원 지하2~4층 (내동)",128.869293456,35.239300765
김해굿모닝병원,"김해시 분성로 444, 굿모닝병원 지하1층,2~5층 (삼정동)",128.894708817,35.234754732
김해아동병원,"김해시 내외중앙로 74, 6,7층 (내동, 밝은메디칼센터)",128.867383404,35.236474529
굿모닝대홍병원,김해시 분성로 180 (외동),128.866364674,35.229711731
김해사랑병원,김해시 금관대로 1263 (내동),128.858564625,35.237958739
감청수병원,"김해시 김해대로 2459 (삼정동, 감청수병원)",128.895887072,35.227899726
의료법인환명의료재단 금강병원,김해시 가락로 20 (부원동),128.883070899,35.228396083
진영새싹병원,"김해시 진영읍 본산로 15-17, 굿프라임시티 301,303,304호",128.736587670,35.306684721
서울새싹병원,"김해시 율하3로 53, 303,701,703,801호 (율하동)",128.814825146,35.172811581
율하꿈나무병원,"김해시 율하3로 38, 7,8층 702,801호 (율하동)",128.814376308,35.171266987
메가병원,김해시 계동로 237 (대청동),128.803893619,35.191336407
의료법인영진의료재단 엠아이병원,"김해시 번화1로 36, 501,601,701,801호 (대청동)",128.800877251,35.190748324
의료법인한서의료재단 진영병원,김해시 진영읍 김해대로334번길 9,128.727395298,35.305897042
나노병원,밀양시 중앙로 229(삼문동),128.757771633,35.483996947
미르아이병원,"밀양시 미리벌중앙로 67, 2~4층(삼문동)",128.748427213,35.483750498
밀양병원,밀양시 밀양대로 1823(삼문동),128.748304567,35.487235900
의료법인 생명사랑의료재단 밀양윤병원,밀양시 삼문중앙로 32(삼문동),128.755595077,35.484551960
의료법인 지원의료재단 굿모닝병원,밀양시 용평로5길 4-20(용평동),128.767925773,35.490297992
제일병원,밀양시 노상하4길 4(내이동),128.748386163,35.496201867
행복한병원,밀양시 하남읍 수산중앙로 56-2,128.711496937,35.374734220
맑은샘센텀병원,거제시 거제대로 3762 (옥포동),128.688909965,34.892103243
대우아동병원,"거제시 옥포대첩로 38, 유라빌딩 2,3,4,6층 (옥포동)",128.691807818,34.893533531
서울아동병원,거제시 서문로5길 6 (고현동),128.621054439,34.889223931
거제아동병원,거제시 동문천로 52 (고현동),128.626209114,34.882930015
사회복지법인내원 마하재활병원,거제시 동부면 율포로 555-11 (마하의료원),128.601169015,34.806864984
거제중앙병원,거제시 고현로 89 (고현동),128.622249726,34.886630334
힘나는병원,"양산시 물금읍 부산대학로 130, 3,4,6,7,9층 5층일부호",129.010034968,35.317210024
단디병원,"양산시 강변로 442, 늘푸른빌딩 3,5,6,7층 (중부동)",129.027160674,35.338627318
더이로운병원,"양산시 양산대로 886, 4층~10층 (북부동)",129.037008622,35.349528251
본바른병원,"양산시 물금읍 청운로 343, 양산바른빌딩 1층일부, 4층~10층",129.015265897,35.326993332
양산아이들병원,"양산시 물금읍 청운로 354, 아이시티 6~7층",129.016920170,35.327213071
서울패미리병원,"양산시 물금읍 증산역로 135, 퍼스트조양 6.7층",129.005293215,35.310584903
웅상센텀힐병원,양산시 평산로 11 (평산동),129.153746117,35.381289950
이레 아이병원,"양산시 물금읍 청운로 185, 504~507, 601~605호",129.002859597,35.317224544
양산제일병원,"양산시 동면 금오로 255, 3층일부4~8층 301,302호 (양산에이치타워)",129.027261506,35.316047715
웅상좋은아이병원,양산시 평산로 12 (평산동),129.153684799,35.381811242
의령병원,의령군 의령읍 의병로14길 10,128.258657400,35.318644492
아라한국병원,함안군 산인면 학산2길 17-50,128.431720338,35.274276493
영동병원,함안군 칠원읍 용산2길 45-13,128.515624162,35.308900111
태황의료재단한성병원,창녕군 창녕읍 교리1길 2,128.492925497,35.542150090
의료법인창녕서울의료재단창녕서울병원,창녕군 창녕읍 창녕대로 122,128.496923290,35.534229995
강병원,고성군 중앙로 49,128.325348128,34.974153928
더 조은병원,고성군 동외로 142,128.326386391,34.973626139
의료법인 이도의료재단 남해병원,남해군 남해읍 화전로 169,127.894250124,34.846469205
함양성심병원,함양군 함양읍 고운로 70,127.729312414,35.520702202
의료법인아림의료재단서경병원,"거창군 거창읍 송정1길 24-13, 서경병원",127.897588347,35.681164356
중앙메디컬병원,"거창군 거창읍 거창대로1길 7-2, 2~7층",127.916787671,35.687347682
삼성합천병원,합천군 합천읍 대야로 876,128.163345748,35.566477660
더앞선치과병원,"창원시 성산구 마디미로16번길 9, 서우빌딩 6층 601호 (상남동)",128.683975227,35.223252417
램브란트치과병원,"창원시 성산구 상남로 73 (상남동, 서울메디컬빌딩5층)",128.679868854,35.220636590
화인치과병원,"창원시 성산구 중앙대로 99 (중앙동, 신한은행빌딩3,4,5층)",128.679342915,35.223841895
고운치과병원,"창원시 성산구 원이대로 595, 고운메디컬빌딩 (용호동)",128.680165931,35.228009038
라온치과병원,"창원시 마산회원구 양덕로 194 (석전동, 영광약국)",128.580146804,35.234419326
창원진해연세스위트치과병원,"창원시 진해구 진해대로 752, 아리온시네마빌딩 3층 304,309호 (석동)",128.697466774,35.158808305
진해라온치과병원,창원시 진해구 진해대로 765 (석동),128.699127482,35.158996462
온치과병원,"창원시 진해구 진해대로776번길 27, 5층 (이동, 온메디칼빌딩)",128.698396274,35.156159030
우리들치과병원,"진주시 동진로 111, 1층 (상대동, 한보프라자)",128.103501442,35.179654003
진주미르치과병원,"진주시 진주대로 922, 4,5,7층 (칠암동)",128.089526220,35.182687963
우가주치과병원,"김해시 전하로 287, 지하1층~5층 B01,101,201,301,401,501호 (외동)",128.870858138,35.228754291
부원뉴욕치과병원,"김해시 가락로 19, 401호 (부원동, 아름다운뉴욕메디컬센터)",128.882195934,35.228349536
삼계뉴욕치과병원,김해시 가야로 193 (삼계동),128.872354322,35.260322010
자기치아살리기365일야간드림플란트치과병원,김해시 김해대로 2361 (부원동),128.885050939,35.226901653
뉴욕치과병원,김해시 내외중앙로 86 (내동),128.867537216,35.237592742
장유뉴욕치과병원,김해시 계동로 221 (대청동),128.802324262,35.190779356
미르치과병원,"거제시 거제중앙로 1930-11, 2,3,4층(고현동)",128.623154916,34.890802933
고운가이드치과병원,"거제시 거제중앙로 1925, 3층(고현동)",128.622080932,34.889847483
메디칼치과병원,"거제시 거제중앙로 1932, 6층(고현동)",128.622393110,34.890439105
더이로운치과병원,"양산시 양산대로 886, 2층 (북부동)",129.037008622,35.349528251
유어스치과병원,"양산시 양산역로 71, 8,9층 (중부동, 노바메디컬케어)",129.028755691,35.335709003
의료법인 피앤케이의료재단 인생한방병원,"창원시 성산구 중앙대로 64, 신텍타워 2,3층 201.301호 (상남동)",128.678239960,35.220406743
명작한방병원,"창원시 성산구 상남로 126, 세종엠필드 4-5층 (상남동)",128.683633170,35.224089349
라라한방병원,"창원시 성산구 마디미서로 26, 한독빌딩 8층,9층,10층 1003호 (상남동)",128.682580322,35.222834256
예이재한방병원,"창원시 의창구 용동로 45, 현대썬앤빌 더 스퀘어 A동 5-6층 (사림동)",128.697251916,35.236404716
유니한방병원,"창원시 의창구 평산로 102, 녹주빌딩 2,3층 (팔용동)",128.619969731,35.252160791
창원 당당한방병원,"창원시 성산구 원이대로 674, 당당한방병원 지하1층, 3-8층 (상남동)",128.686829299,35.223300478
창원자생한방병원,"창원시 성산구 원이대로682번길 8, SH빌딩 (상남동)",128.686891106,35.222533965
의료법인 청민의료재단 몸편한한방병원,창원시 의창구 남산로1번길 60 (팔용동),128.616818524,35.261341910
자연안에 한방병원,"창원시 마산회원구 양덕로 144, 상현메디컬빌딩 (양덕동)",128.584164271,35.231267266
의료법인한결의료재단 자연한방병원,창원시 마산합포구 진전면 회진로 742-45,128.424023533,35.057319564
강추한방병원,"창원시 마산회원구 3·15대로 686, 365병원 본관동 5,7,8,10층 501,701,801,1003호 (석전동)",128.579482272,35.233757476
선운한방병원,"진주시 진주대로915번길 1, 1~9층 (강남동)",128.089245532,35.181705749
장덕한방병원,"진주시 촉석로 178, 지하1, 1~3층 (중안동)",128.081420579,35.194371222
진주한방병원,"진주시 진주대로 1180, 1~4층 (봉곡동)",128.074027838,35.195172650
동서양한방병원,"통영시 원문로 27, 3,4,5층",128.425565512,34.857254805
경희선한방병원,"김해시 삼계중앙로 42, 4,6,7,8층 401,601,701,803호 (삼계동)",128.869860204,35.260333369
당당한방병원,"김해시 가락로 23, 5~9층 (부원동)",128.882166689,35.228653906
베스트한방병원,"김해시 구지로 58, 2,3,4층 502호 (내동, 한일빌딩)",128.869542021,35.239276594
자연힐한방병원,"김해시 번화1로56번길 2, 101, 104, 105, 201, 301호 외 3호 (대청동)",128.800897606,35.192274093
튼튼한방병원,"밀양시 밀양대로 1855(삼문동, 1~2층)",128.746330898,35.489583556
새힘한방병원,"양산시 양산역로 101, 2,4,5,6,7층 (중부동)",129.029108309,35.338356179
양산더존한방병원,"양산시 물금읍 청운로 349, 세정에스타 5~6층",129.015733893,35.327509048
합천한방병원,합천군 합천읍 대야로 890,128.163668344,35.567807186
예정요양병원,"창원시 의창구 팔용로 319, 반계동 요양병원 A동 지하1~지상4층 (반계동)",128.605533848,35.247864942
의료법인승인의료재단동창원요양병원,"창원시 의창구 동읍 의창대로 870-5, 동창원요양병원 1,2,3,4층 지하1층(103호)호",128.686713751,35.278091774
서라벌요양병원,"창원시 의창구 남산로17번길 28, 2층, 3층 (팔용동, 팔용에이스빌딩 2,3층)",128.614392510,35.260547073
시티요양병원,창원시 의창구 대봉로26번길 12-3 (봉림동),128.668484341,35.251139337
북면이화요양병원,창원시 의창구 북면 천주로 1092,128.608201826,35.348023397
의료법인 자은의료재단 덕산요양병원,창원시 의창구 동읍 의창대로 882,128.687086176,35.278350184
창원삼성요양병원,창원시 의창구 의안로2번길 31 (소답동),128.627196691,35.261688117
행복한요양병원,창원시 의창구 북면 천주로 785-1,128.600534859,35.323752987
푸른요양병원,"창원시 성산구 창원천로94번길 82-18, 푸른요양병원(B동) (대원동)",128.658440801,35.237229165
성미카엘요양병원,창원시 의창구 사림로45번길 4-11 (사림동),128.678434963,35.247710175
희연요양병원,"창원시 성산구 원이대로393번길 25, 희연빌딩 2-3층, 지하1-2층 일부호 (반지동)",128.662575225,35.239959265
성운요양병원,창원시 마산회원구 내서읍 함마대로 2694-72,128.506649460,35.254907793
복음요양병원,"창원시 마산회원구 3·15대로 850, 복음요양병원 (합성동)",128.589545918,35.245409882
한마음요양병원,"창원시 마산합포구 오동동10길 73, 2-3층 (오동동, 서광아침의빛)",128.581134579,35.207310840
의료법인혜주의료재단 더편한요양병원,창원시 마산합포구 진동면 삼진의거대로 826,128.500396430,35.128263070
친절요양병원,"창원시 마산합포구 현동로 38, 4-10층 (우산동)",128.552941424,35.151874834
의료법인벽암의료재단 큰바다요양병원,창원시 마산합포구 수산1길 262-2 (오동동),128.583296589,35.204887563
의료법인합포의료재단마산우리요양병원,"창원시 마산합포구 해안대로 35 (해운동, MH우리병원)",128.562446605,35.180941143
의료법인예경의료재단예경요양병원,"창원시 마산합포구 중앙서1길 25 (대성동2가, 예경노인병원)",128.561938277,35.193755999
의료법인청록의료재단신세계요양병원,창원시 마산회원구 내서읍 죽암로 89 (신세계요양병원),128.509169011,35.259964036
의료법인성인의료재단이에이씨창원요양병원,창원시 마산합포구 가포로 652 (덕동동),128.579016890,35.141950372
한일요양병원,"창원시 마산합포구 남성로 167 (동성동, 한마빌딩)",128.578127141,35.205648559
의료법인태산의료재단 큰사랑요양병원,창원시 마산회원구 북성로 469 (두척동),128.546867670,35.236306184
의료법인굿모닝의료재단굿모닝요양병원,"창원시 마산회원구 봉양로 7 (양덕동, 동방프라자)",128.587939324,35.221543822
경희요양병원,"창원시 마산합포구 3·15대로 243, 7~11층 (중앙동3가)",128.567077449,35.200015317
의료법인승도의료재단메트로요양병원,창원시 마산회원구 3·15대로 597 (석전동),128.573638522,35.227420481
의료법인석영의료재단효도투석요양병원,"창원시 마산회원구 3·15대로 878 (구암동, 효도병원)",128.592329526,35.246835651
의료법인정다운사람들의료재단정다운요양병원,"창원시 마산회원구 봉양로 160 (봉암동, 정다운요양병원)",128.603752506,35.217564508
의료법인영민의료재단소망노인전문병원,창원시 마산합포구 무학로 402 (자산동),128.560444287,35.204918852
메트로요양병원,"창원시 진해구 용원로 37 (용원동, 블루마운틴)",128.813384759,35.099985330
참좋은요양병원,창원시 진해구 충장로 154 (충무동),128.668835514,35.151766298
늘푸른요양병원,창원시 진해구 충장로 181 (여좌동),128.671922666,35.152709654
용원휴요양병원,창원시 진해구 남의로 150 (두동),128.795775833,35.115794870
한빛요양병원,"진주시 대신로 120, 한빛요양병원 지하2층 2층-9층층 (상평동)",128.118594710,35.171120953
진주중앙요양병원,"진주시 촉석로 178, 지하1층,지상1~5층 (중안동)",128.081420579,35.194371222
의료법인 행복한의료재단 센텀요양병원,"진주시 진주대로941번길 8, B1,2,1,3~7층 (강남동, 센텀병원)",128.087658265,35.184235115
엠마우스요양병원,"진주시 남강로 25 (평거동, 엠마우스요양병원)",128.040466860,35.166313303
의료법인 진주의료재단 진주노인요양병원,"진주시 문산읍 제곡길98번길 41, 지하1, 1~5층",128.175965321,35.153225062
의료법인 목화의료재단 목화요양병원,진주시 천수로163번길 25 (망경동),128.081829678,35.178568207
충무요양병원,통영시 남해안대로 760,128.424376832,34.865620674
의료법인 진주의료재단 경남도립통영노인전문병원,통영시 도산면 남해안대로 1818,128.359596881,34.912936094
의료법인 한림의료재단 효성요양병원,"통영시 용남면 남해안대로 523, 1,4,5층",128.441243929,34.862031590
온요양병원,"사천시 사천읍 구암두문로 154-28, 온요양병원",128.102557987,35.087611460
의료법인 삼포의료재단 현대요양병원,"사천시 각산로 86 (서동, 미진예식장)",128.065440759,34.930383403
의료법인 행복한의료재단 사천중앙요양병원,"사천시 사천읍 옥산로 127, 3~7층",128.096978390,35.079059672
의료법인 덕산의료재단 한마음노인요양병원,사천시 향촌4길 127 (향촌동),128.098551346,34.935260455
의료법인이은의료재단 이은요양병원,김해시 상동면 상동로 194,128.893586582,35.301701663
의료법인에스씨의료재단 파크힐요양병원,김해시 생림면 인제로 593,128.888917744,35.278174932
(의)수의료재단 서청솔요양병원,김해시 금관대로1084번길 15 (흥동),128.850683165,35.224099615
서종요양병원,김해시 김해대로2492번길 54-7 (삼정동),128.904586650,35.226950818
의료법인백경의료재단김해강남요양병원,김해시 평전로 83 (외동),128.855978808,35.238323910
이화수로요양병원,김해시 분성로261번길 15 (봉황동),128.874438691,35.234113699
의료법인 서원탑의료재단 서원요양병원,"김해시 가락로 83, 2,3,4,5층 (서상동)",128.881193624,35.234170853
의료법인경빈의료재단 김해센텀요양병원,"김해시 구지로 58, 6~10층 (내동)",128.869542021,35.239276594
한가족요양병원,김해시 전하로 234 (전하동),128.872542745,35.224528714
의료법인 오남의료재단 인제요양병원,김해시 가야로 210 (삼계동),128.871992876,35.258759959
의료법인 문용의료재단 천사요양병원,김해시 분성로 433 (삼정동),128.893320072,35.235068802
(의)밀성학원의료재단 성모요양병원,김해시 김해대로 2479-1 (삼정동),128.898042103,35.228120475
의료법인 리드의료재단 다정한요양병원,김해시 김해대로 2453 (삼정동),128.894931186,35.227965109
의료법인 송파의료재단 가야요양병원,김해시 주촌면 이지산단로 155,128.838901508,35.224673911
의료법인수의료재단 청솔요양병원,김해시 김해대로2529번길 35 (삼정동),128.902774143,35.231744349
청보요양병원,"김해시 해반천로168번길 38, 3,4층 (삼계동)",128.871401393,35.263233011
녹십자요양병원,김해시 호계로 416 (부원동),128.885476773,35.227568089
(의)환명의료재단 경상남도립김해노인전문병원,김해시 김해대로 1814-39 (삼계동),128.861007370,35.261616226
의료법인푸른솔의료재단 김해한솔재활요양병원,김해시 김해대로 2379 (부원동),128.887260376,35.227173232
강민의료재단 나누리요양병원,김해시 진례면 진례로74번길 47,128.753395281,35.239575775
청담요양병원,김해시 진영읍 김해대로 132-1,128.710123977,35.299000274
의료법인신화성의료재단 장유요양병원,"김해시 번화1로56번길 19, 2,4~11층 (대청동)",128.802563743,35.193243315
사단법인한국경로복지회 우리요양병원,"김해시 대청로210번길 24, 장유엔트로빌딩 7,8,9층 (대청동)",128.797385632,35.193869693
재단법인그루터기장유은혜요양병원,"김해시 금관대로 592, 2~5층 (무계동)",128.814820024,35.201257059
대민의료생활협동조합 온세상요양병원,김해시 대청로210번길 12-23 (대청동),128.796815173,35.192850970
의료법인만전의료재단장유효요양병원,"김해시 능동로155번길 10-15, 새미래네오피아 4층 (부곡동)",128.808026440,35.203598061
의료법인한솔의료재단 한서재활요양병원,김해시 진영읍 진영로454번길 102-10,128.753072221,35.292538533
의료법인하은의료재단 장유제일요양병원,"김해시 번화1로79번길 4, 다인메디컬센타 (대청동)",128.798880464,35.194373067
의료법인 영남루의료재단 갤러리의아침요양병원,밀양시 내이신촌1길 14(내이동),128.735072762,35.505000571
의료법인 행복한의료재단 숲속요양병원,밀양시 단장면 동화2길 36-59,128.887039099,35.510437796
의료법인 은성의료재단 좋은연인요양병원,밀양시 삼랑진읍 천태로 355-99,128.867357027,35.417700202
희윤요양병원,밀양시 부북면 춘화로 60,128.745308374,35.509521258
의료법인 영민의료재단 밀양요양병원,밀양시 용평로 6길 8(용평동),128.772413715,35.488719169
거제요양병원,거제시 거제대로 2975(장승포동),128.718478704,34.859861898
굿뉴스요양병원,거제시 거제면 거제남서로 3554,128.583833073,34.857411778
맑은숨요양병원,양산시 탑골길 310(용당동),129.211871978,35.416410802
풍경요양병원,"양산시 하북면 양산대로 2634, 지하1, 1~4층",129.091393723,35.493959325
우리요양병원,"양산시 물금읍 황산로 356, 7,8,9층",128.986323086,35.308032177
평심요양병원,"양산시 하북면 신평로 37, 2~6층",129.086497772,35.491573068
새웅상요양병원,양산시 서창동1길 7 (삼호동),129.168578624,35.411234405
양산서울요양병원,"양산시 삼성7길 11-14 (북정동, 1층 일부, 2~9층)",129.041939264,35.357887824
의료법인 인경의료재단 홍익요양병원,양산시 북안남6길 6 (북부동),129.038391797,35.346104148
유성요양병원,"양산시 삼일로 75 (북부동, 지하1층,1층일부,3-7층)",129.035607246,35.344148840
양산중앙요양병원,양산시 장터4길 6-9 (중부동),129.036298379,35.341997375
현대요양병원,양산시 상북면 대석1길 58,129.062898903,35.395138796
신세계요양병원,양산시 월라2길 45 (덕계동),129.150806788,35.365109599
혜인요양병원,양산시 웅상대로 955 (평산동),129.155140953,35.385045911
새롬재활요양병원,함안군 칠원읍 예곡1길 13,128.531745380,35.275852151
함안요양병원,함안군 칠원읍 용산2길 45-13,128.515624162,35.308900111
소명요양병원(휴업),함안군 칠원읍 용산2길 45-15,128.515241908,35.309327722
의료법인창녕성산의료재단창녕효요양병원,창녕군 대지면 효정직교길 119,128.480668978,35.542149974
의료법인 동림의료재단 로얄힐스요양병원,창녕군 부곡면 온천로 486,128.576427409,35.441027350
프라임요양병원,"창녕군 고암면 상대2길 16, 더케이서드에이지",128.512514008,35.577600509
의료법인 창녕서울의료재단 창녕서울요양병원,창녕군 창녕읍 창녕대로 122,128.496923290,35.534229995
의료법인창녕성산의료재단 영산요양병원(휴업),창녕군 영산면 영산도천로 430,128.520358523,35.442092983
남지요양병원,창녕군 남지읍 동포로 15,128.481358617,35.390819173
의료법인 케이엔의료재단 경남요양병원,창녕군 남지읍 남지중앙로 45,128.474718480,35.391136657
의료법인 경림의료재단 고성요양병원,고성군 고성읍 남해안대로 2607,128.333456215,34.976241399
의료법인 수영의료재단 고성제일요양병원,고성군 고성읍 남해안대로 2514,128.335685392,34.968107245
다온자연요양병원,하동군 북천면 옥단로 515,127.877422276,35.144996909
효경요양병원(휴업),하동군 옥종면 옥수로 15,127.885313231,35.178485062
산청요양병원,산청군 금서면 친환경로2605번길 69,127.868543553,35.423367866
성은효요양병원,거창군 거창읍 거창대로 55 (성은주상복합빌딩),127.915976945,35.686531756
의료법인아람의료재단덕유산자연사랑요양병원,거창군 거창읍 거안로 1266-77,127.887245990,35.684951333
거창군립 노인요양병원,거창군 거창읍 운정3길 180,127.890833481,35.675840020
합천고려요양병원,"합천군 대양면 대야로 737-20, 1호",128.161821316,35.552523238
합천요양병원,합천군 합천읍 신소양2길 40,128.167486886,35.581341960
희연재활병원,"창원시 성산구 원이대로393번길 25, 희연빌딩 1층일부, 4~5층일부, 6층, 지하1~2층일부호 (반지동)",128.662575225,35.239959265
예손재활의학과병원,진주시 진주대로 839 (주약동),128.092483778,35.175519386
의료법인희원의료재단 래봄병원,김해시 분성로 202 (외동),128.869187636,35.229946224
의료법인한길사랑의료재단현대사랑병원,창원시 마산합포구 진북면 동삼길 314-25,128.447336639,35.132144234
의료법인예경의료재단예경병원,"창원시 마산합포구 중앙서1길 25 (대성동2가, 예경노인병원)",128.561938277,35.193755999
의료법인청아의료재단동서병원,창원시 마산회원구 내서읍 호원로 265 (동서병원),128.521209410,35.257009071
동양의료재단연세사랑병원,창원시 진해구 행암로 76 (장천동),128.700983241,35.128760508
의료법인진주의료재단진주성남병원,진주시 문산읍 문산로 831,128.200249435,35.157550084
의료법인 진주의료재단 새진주정신병원,"진주시 문산읍 제곡길98번길 36, 지하1, 1~4층",128.173775276,35.153149020
의료법인 진주의료재단 진주정신병원,진주시 문산읍 제곡길98번길 49-6,128.176591392,35.152700942
의료법인 통영의료재단 통영정신병원,통영시 도산면 남해안대로 1820,128.360600575,34.912501732
의료법인 두암의료재단사천동희병원,사천시 사천읍 구암두문로 74,128.094547442,35.088268218
의료법인 덕산의료재단 한마음병원,"사천시 향촌4길 127 (향촌동, 한마음병원)",128.098551346,34.935260455
의료법인 순영의료재단 순영병원,사천시 축동면 서삼로 1110-35,128.044443286,35.093509132
의료법인경산의료재단 해광병원,김해시 김해대로2492번길 54-28 (삼정동),128.904163632,35.225944747
한사랑병원,김해시 강동로 65 (강동),128.876460034,35.219933071
(의)동남의료재단 동남병원,김해시 가야로51번길 42 (삼계동),128.869255205,35.272846650
장유누가병원,김해시 대청로104번길 80-1 (대청동),128.805681143,35.187726679
밀양우리병원,밀양시 중앙로 114(가곡동),128.766678866,35.476300515
21C한일병원,거제시 사등면 지석로 70,128.520663654,34.901627684
아람병원,양산시 덕계2길 11-15 (덕계동),129.146716507,35.369569614
노아병원,양산시 상북면 수서로 349-17,129.038200261,35.441929739
덕계성심병원,"양산시 월라2길 45, 덕계성심병원 (덕계동)",129.150579137,35.365143898
형주병원,양산시 상북면 양산대로 1870-64,129.071190534,35.429837814
양산병원,양산시 모래들1길 91 (주진동),129.147157355,35.401317845
의령사랑병원,의령군 의령읍 의합대로 105-8,128.283948546,35.325930748
우리병원,함안군 칠서면 삼칠로 1213,128.493208512,35.387344565
의료법인대종의료재단부곡온천병원,창녕군 부곡면 원앙로 72,128.579308854,35.442104533
고성성심병원,고성군 회화면 남해안대로 3963-21,128.372383837,35.080760499
하동우리들병원,하동군 금남면 섬진강대로 957,127.810592435,34.995416340
합천고려병원,"합천군 대양면 대야로 737-20, 2호",128.161821316,35.552523238
유메디의원,"창원시 성산구 용지로169번길 11-14, 대웅 RED - U 301~307호 (용호동)",128.680485336,35.230065245
실로스의원,"창원시 성산구 중앙대로 114, 제일은행 1층 (상남동)",128.681045669,35.224194104
다원메디컬의원,"창원시 성산구 마디미로22번길 12, 노블레스상가 302, 303호 (상남동)",128.683488620,35.223217829
초이스마취통증의학과의원,"창원시 성산구 마디미로4번길 5, 601호 (상남동)",128.685043869,35.223900329
밝은힐링안과의원,"창원시 성산구 상남로 126, 10층 (상남동)",128.683633170,35.224089349
뷰티라운지의원,"창원시 성산구 상남로 93, 지하 104,105호 (상남동)",128.680903704,35.222138929
아산더블유외과의원,"창원시 성산구 용지로133번길 3, 한서빌딩 7층 701호 (중앙동)",128.679397816,35.227316440
아너스의원,"창원시 의창구 창원대로363번길 22-33, 대찬 빌딩 9~10층 901~902호, 1002호 (팔용동)",128.641323848,35.237115136
삼성바른피부과의원,"창원시 성산구 반송로 148-6, 미건빌딩 6층 601,602호 (반림동)",128.671255665,35.235960335
신경수소아청소년과의원,"창원시 성산구 마디미로16번길 9, 서우빌딩 4층 401,402호 (상남동)",128.683975227,35.223252417
서울아산이비인후과의원,"창원시 성산구 상남로 73, 서울메디컬센터 8,9,10층 1002호 (상남동)",128.679868854,35.220636590
맑음내과의원,"창원시 의창구 우곡로217번길 6, 새마을회관 2~3층 (명서동)",128.648488576,35.239388790
허리편한신경외과의원,"창원시 의창구 태복산로15번길 42, 진보빌딩 1층 101호 (도계동)",128.637950977,35.256335042
전한나산부인과의원,"창원시 의창구 북면 감계로 306, 3층 301,302호",128.594318231,35.301944746
어뉴봄의원,"창원시 성산구 대암로 247, 더 스퀘어 202.203호 (성주동)",128.711450711,35.203891393
지움의원,"창원시 성산구 마디미로16번길 11, 지원빌딩 2층 201호 (상남동)",128.683644599,35.223409021
도계가정의학과의원,"창원시 의창구 도계로60번길 13-22, 1층 (도계동)",128.637131363,35.257635462
명문마취통증의학과의원,"창원시 의창구 중동중앙로 83, 디세븐파크 2층,4층 201~205호, 405~407호 (중동)",128.627591436,35.259265813
서울100마디튼튼의원,"창원시 성산구 가양로124번길 7, 선린빌딩 (대방동)",128.707189172,35.208617455
대방소아청소년과의원,"창원시 성산구 가양로124번길 13, X-mall빌딩 307호 (대방동)",128.707548946,35.208241378
화인마취통증의학과의원,"창원시 성산구 상남로 122, 롯데메디컬 801.901호 (상남동)",128.683329369,35.223715674
라움산부인과의원,"창원시 의창구 중동중앙로 83, 디세븐파크 5층일부, 6 층 7층일부(701호일부)호 (중동)",128.627591436,35.259265813
에스드림의원,"창원시 성산구 마디미로22번길 12, 노블레스상가 3층 301호 (상남동)",128.683488620,35.223217829
활기찬마취통증의학과의원,"창원시 의창구 용동로83번안길 37, 4-6층 7층 일부호 (사림동)",128.700176490,35.239042974
전의원,"창원시 의창구 북면 천주로 1080, 2층",128.607782793,35.347105942
김준우피부과의원,"창원시 의창구 중동중앙로 83, D7Park 4층 412-416호 (중동)",128.627591436,35.259265813
서울삼성신경과의원,"창원시 의창구 중동중앙로 83, D7Park 5층 512-516호 (중동)",128.627591436,35.259265813
더나처럼성형외과의원,"창원시 성산구 마디미로16번길 9, 서우빌딩 2층 202-204호 (상남동)",128.683975227,35.223252417
샤인빔의원,"창원시 성산구 마디미로16번길 9, 서우빌딩 (상남동)",128.683975227,35.223252417
좋은샘내과의원,"창원시 의창구 평산로207번길 4, 킹덤시티 6층 605-608호 (서상동)",128.625893700,35.260200091
365창원다나은마취통증의학과의원,"창원시 성산구 마디미로4번길 1, 창원 Daily빌딩 5층 501-502호 (상남동)",128.685356118,35.223739831
상쾌한내과이비인후과의원,"창원시 의창구 중동중앙로 83, 디세븐파크 4층 408-411호 (중동)",128.627591436,35.259265813
엘리나의원,"창원시 성산구 상남로 126, 세종M필드 7층 1호 (상남동)",128.683633170,35.224089349
신세계이비인후과의원,"창원시 의창구 중동중앙로 79, 에스제이빌딩 2층 201호 (중동)",128.626833528,35.259071922
창원수신경외과의원,"창원시 의창구 팔용로 428, 드림피아 2층 203,204,206-209호 (팔용동)",128.612847550,35.254660735
창원이루다성형외과의원,"창원시 성산구 용지로153번길 10, 동원빌딩 7층 702호 (용호동)",128.680491306,35.229250851
에스엘신경과의원,"창원시 의창구 태복산로3번길 13, 에스엘빌딩 4층 (도계동)",128.638132020,35.253305448
킹남성의원,"창원시 의창구 의창대로 72, 현대메디칼 10층 (팔용동)",128.608244747,35.257496932
창원리즈온의원,"창원시 성산구 단정로 13, 에이스타워 4층 (상남동)",128.682322644,35.220706907
더고운성형외과의원,"창원시 성산구 용지로133번길 3, 한서빌딩 8층 (중앙동)",128.679397816,35.227316440
활기찬정형외과의원,"창원시 성산구 대암로 247, 더 스퀘어 A동 6층 (성주동)",128.711450711,35.203891393
더모젤의원,"창원시 성산구 용지로133번길 3, 한서빌딩 6층 (중앙동)",128.679397816,35.227316440
디엘의원,"창원시 성산구 상남로 88, PWR빌딩 7층 701호 (상남동)",128.681246525,35.221287810
정용근내과의원,"창원시 성산구 용지로133번길 3, 한서빌딩 2층 202호 (중앙동)",128.679397816,35.227316440
한서여성의원,"창원시 성산구 용지로133번길 3, 한서빌딩 4층 401호 (중앙동)",128.679397816,35.227316440
서울성모정형외과의원,"창원시 성산구 용지로133번길 3, 5층 501호 (중앙동)",128.679397816,35.227316440
플러스이비인후과의원,"창원시 성산구 원이대로 591, X프리빌딩 5층 (용호동)",128.679976372,35.228127015
좋은아침의원,"창원시 성산구 원이대로863번길 26, ik빌딩 2.3층 (가음동)",128.698133873,35.208097785
성산라파의원,"창원시 성산구 가음로15번길 50, 경동스포렉스 205호206호 (남양동)",128.702785873,35.212734112
키플러스의원,"창원시 성산구 중앙대로100번길 9, 리베라컨벤션 4층 403호 (상남동)",128.680494170,35.223248268
덕산의원,"창원시 의창구 동읍 의창대로915번길 2, 청담빌딩 2층",128.690776788,35.279349848
상남더맑은내과의원,"창원시 성산구 마디미로21번길 17, 상남동피아노빌딩 6층 601호 (상남동)",128.686227945,35.221685560
가온내과의원,"창원시 성산구 가음로 88, 3~6층 (가음동)",128.703040579,35.205416566
창원동산의원,"창원시 성산구 창이대로706번길 4-18, 창원동산병원 1층 (사파동)",128.700125033,35.222411287
창원퍼스트피부과의원,"창원시 의창구 평산로207번길 4, 킹덤시티 5층 501호, 6층 601-602호 (서상동)",128.625893700,35.260200091
북면소아청소년과의원,창원시 의창구 북면 동곡로 9,128.585284603,35.317226172
블리비의원,"창원시 성산구 마디미서로 30, 3층 (상남동)",128.682330581,35.222594924
톡스앤필의원 창원점,"창원시 성산구 중앙대로 104, 4층 405,406,407,408호 (상남동, 마이우스빌딩)",128.680927665,35.223474669
시원이비인후과의원,"창원시 의창구 북면 감계로 306, 2층 201호",128.594318231,35.301944746
셀럽성형외과의원,"창원시 성산구 마디미동로 31, 호동빌딩 5-6층 (상남동)",128.685367341,35.220658294
예담의원,"창원시 의창구 북면 감계로110번길 54-39, 4층 403, 404호 (화진빌딩)",128.595558403,35.301569399
북면감계안과의원,"창원시 의창구 북면 감계로110번길 54-39, 5층 504호",128.595558403,35.301569399
미즈맘산부인과의원,"창원시 의창구 원이대로285번길 6, 4,5,6,7,10층 (봉곡동)",128.651769954,35.242642740
워킹재활의학과의원,"창원시 성산구 원이대로 646, 5층 501,502,503호 (상남동, 에이스빌딩)",128.684200102,35.224778700
미시안안과의원,"창원시 성산구 중앙대로 64, 신텍타워 4층 (상남동)",128.678239960,35.220406743
창원글로리안과의원,"창원시 성산구 마디미서로 54, 3층 301호 (상남동, 서울아동병원)",128.680885890,35.220840872
뮤즈의원,"창원시 성산구 단정로 13, 5층 502호 (상남동, 에이스타워)",128.682322644,35.220706907
이앤장피부과의원,"창원시 성산구 상남로 118, 7층 702호 (상남동, CNN타워 702, 703호)",128.683124456,35.223465935
감계삼성내과의원,"창원시 의창구 북면 감계로 300, 3층 302, 303호",128.593629957,35.301946022
수내과의원,"창원시 의창구 원이대로 595 (용호동, 고운메디컬빌딩3층301호)",,
무동의원,창원시 의창구 북면 동곡로 17 (2층 203호),128.585288154,35.317937628
더하얀의원,"창원시 의창구 중동중앙로 95, 4층 404~5호 (중동)",128.628810929,35.259493625
신촌의원,"창원시 성산구 신촌로 108 (신촌동, 신촌메디컬빌딩2층)",128.628480683,35.199974974
윤은숙산부인과의원,"창원시 성산구 원이대로883번길 15-24 (가음동, 가음시장대상가 4층6호)",128.696992119,35.208052672
파티마안과의원,"창원시 성산구 원이대로 320, 더시티세븐 트레이드센터 301,302,401호 (대원동)",128.654419062,35.239661992
센텀산부인과의원,"창원시 성산구 원이대로 578 (중앙동, 구트병원 빌딩 701호)",128.677949856,35.228369434
다니엘성형외과의원,"창원시 성산구 상남로 126, 세종M필드 3층 301-302호 (상남동)",128.683633170,35.224089349
서울윤소아청소년과의원,"창원시 성산구 반송로 148-6, 미건빌딩 3층 302호 (반림동)",128.671255665,35.235960335
고운마취통증의학과의원,"창원시 성산구 원이대로 595 (용호동, 고운메디컬빌딩 8층)",128.680165931,35.228009038
온누리내과의원,"창원시 의창구 창이대로15번길 24 (팔용동, 서주빌딩)",128.642691732,35.235814694
아이조아소아청소년과의원,창원시 의창구 도계로 68 (도계동),128.638118258,35.258547922
참사랑내과의원,"창원시 성산구 원이대로473번길 22 (반림동, 반림상가 2층 1호)",128.670636437,35.235560702
참사랑소아청소년과의원,"창원시 성산구 원이대로473번길 22 (반림동, 반림상가 3층 1호)",128.670636437,35.235560702
서울연합의원,"창원시 성산구 대암로 40-14 (남양동, 동양람세스빌 302.303호)",128.700836477,35.213698013
신비성형외과의원,"창원시 의창구 중동중앙로 47, 어반브릭스 4007,4008호 (중동)",128.624969384,35.256643333
벨다드의원,창원시 성산구 마디미서로 3 (상남동),128.684505769,35.224212647
윤병구내과의원,"창원시 의창구 원이대로189번길 42 (명서동, 부영상가 202호)",128.646583595,35.249379155
행복한아이들의원,"창원시 성산구 원이대로 320, 더시티세븐 제에스동 205호 (대원동)",128.654419062,35.239661992
연세 안정우의원,창원시 의창구 대봉로 24 (봉림동),128.667287789,35.251308289
하나이비인후과의원,"창원시 성산구 동산로 124 (상남동, 성원주상가)",128.691613625,35.219342021
하이맨비뇨기과의원,"창원시 성산구 원이대로 664, 창원메디컬 6층 (상남동)",128.685922479,35.223812691
댄의원,"창원시 성산구 중앙대로100번길 13, 402호 (상남동)",128.681425971,35.222709358
스마일의원,"창원시 성산구 가음로 100 (가음동,3층)",128.703156998,35.203983471
숨편한내과의원,창원시 의창구 우곡로217번길 6 (명서동),128.648488576,35.239388790
위드내과의원,"창원시 의창구 팔용로 438 (팔용동, 팔용종합상가 401,406호)",128.613500890,35.255333697
참정형외과의원,"창원시 성산구 마디미로21번길 17, 상남동피아노빌딩 5층 (상남동)",128.686227945,35.221685560
다나신경외과의원,"창원시 의창구 의안로31번길 28-5, 2층, 3층일부층 (중동)",128.620941431,35.264679784
새미래정형외과의원,창원시 성산구 원이대로 578 (중앙동),128.677949856,35.228369434
엘리스의원,"창원시 성산구 마디미서로 54 (상남동, 서울아동빌딩 501호)",128.680885890,35.220840872
올바른남성의원,"창원시 성산구 마디미서로 54, 서울아동병원 302호 (상남동)",128.680885890,35.220840872
세종내과영상의학과의원,창원시 의창구 원이대로285번길 6 (봉곡동),128.651769954,35.242642740
문영일이비인후과의원,창원시 의창구 팔용로 428 (팔용동),128.612847550,35.254660735
리얼성형외과의원,창원시 성산구 마디미서로 54 (상남동),128.680885890,35.220840872
레드성형외과의원,창원시 성산구 상남로 132 (상남동),128.683951969,35.224476754
차안과의원,창원시 성산구 원이대로 587 (용호동),128.679481329,35.228413966
범안과의원,창원시 성산구 원이대로 587 (용호동),128.679481329,35.228413966
우리정형외과의원,창원시 의창구 동읍 의창대로 854,128.684603441,35.276850607
운경병리과의원,"창원시 의창구 북면 무동로226번길 6-30, 한울빌딩 2층 201~206호",128.585336227,35.317496063
아이사랑소아청소년과의원,"창원시 의창구 평산로 96 (팔용동, 웰빙프라자308호일부)",128.619571757,35.251668986
굿네스의원,"창원시 성산구 중앙대로 114, 4층 (상남동, SC제일은행)",128.681045669,35.224194104
서울산부인과의원,"창원시 성산구 원이대로 664 (상남동, 창원메디컬5,6층)",128.685922479,35.223812691
옥광휘신경외과의원,창원시 의창구 원이대로285번길 5 (봉곡동),128.651229063,35.242814424
끌림365의원,"창원시 성산구 원이대로 320, 더시티세븐 (대원동)",128.654419062,35.239661992
아름다운피부과의원,창원시 성산구 가양로124번길 1 (대방동),128.707024602,35.209222047
브랜든시티의원,"창원시 성산구 원이대로 320, 더시티세븐 T동 601호 (대원동)",128.653213815,35.240375612
맑은피부과의원,"창원시 성산구 원이대로 654 (상남동, 세인프라자3층)",128.684901309,35.224371470
하얀세상의원,"창원시 성산구 원이대로 678 (상남동, 2층201호)",128.687195485,35.223098291
석재활의학과의원,"창원시 의창구 팔용로 429 (팔용동, 팔용프라자204호)",128.612447814,35.255004244
서울밸런스의원,"창원시 성산구 상남로 73 (상남동, 서울메디컬센터 4층)",128.679868854,35.220636590
온소아청소년과이비인후과의원,창원시 의창구 북면 감계로 304 (재성빌딩 204호),128.594011859,35.301996939
동화의원,창원시 의창구 동읍 동읍로 5 (덕산빌딩2층),128.684360535,35.277840259
로뎀재활의학과의원,"창원시 성산구 동산로 124, 5층 507-A, 507-B호호 (상남동, 성원그랜드쇼핑)",128.691613625,35.219342021
미즈유외과의원,창원시 성산구 상남로 122 (상남동),128.683329369,35.223715674
터직업환경의학과의원,"창원시 성산구 중앙대로39번길 6 (중앙동, 제일상가 308-315호)",128.675500603,35.219638332
로즈맘여성산부인과의원,"창원시 의창구 평산로 96 (팔용동, (웰빙프라자309,310호))",128.619571757,35.251668986
송진호마취통증의학과의원,"창원시 성산구 동산로 124, 성원아파트 성원종합상가 5층 519호 (상남동)",128.691613625,35.219342021
한솔마취통증의학과의원,"창원시 의창구 우곡로217번길 36 (명서동, 모리스빌딩3층)",128.650413796,35.241823427
제일의원,"창원시 의창구 도계로 69 (도계동, 세영빌딩2층)",128.638647871,35.258502816
아름다운산부인과 의원,"창원시 의창구 팔용로 442 (팔용동, KB빌딩4층)",128.613837291,35.255704962
S성형외과의원,"창원시 성산구 원이대로682번길 14 (상남동, 삼광빌딩301호)",128.686585511,35.222111189
서울비뇨의학과의원,"창원시 의창구 팔용로 438, 팔용종합상가 3층 307호 (팔용동)",128.613500890,35.255333697
제일내과의원,"창원시 성산구 동산로 166, 사파대동상가 지하7호 7-1호 (사파동)",128.693965521,35.222251089
서울아이비안과의원,"창원시 성산구 상남로 73 (상남동, 서울메디컬빌딩4층)",128.679868854,35.220636590
청솔신경과의원,"창원시 의창구 소계로90번길 3-1 (소계동, 1층)",128.599367815,35.257484533
제니트비뇨기과의원,"창원시 성산구 원이대로 595, 고운메디컬빌딩 3층 302호 (용호동)",128.680165931,35.228009038
21세기내과의원,"창원시 성산구 반송로 150 (반림동, 회성빌딩3층)",128.671815642,35.235978614
아톰소아청소년과의원,"창원시 성산구 안민안길 20 (안민동, 103호)",128.691729349,35.186562851
아인성형외과의원,"창원시 성산구 상남로 118, 4층 402호 (상남동, CNN타워)",128.683124456,35.223465935
굿모닝외과의원,창원시 의창구 사화로 6 (팔용동),128.608641516,35.257259836
21세기정형외과의원,"창원시 성산구 반송로 150 (반림동, 회성빌딩4,5층)",128.671815642,35.235978614
밝고고운안과의원,"창원시 성산구 원이대로 595, 고운메디컬빌딩 7층 (용호동)",128.680165931,35.228009038
메디포맨남성의원,"창원시 의창구 의창대로62번길 2, 10층 (팔용동, 동영오피스 10층)",128.607308843,35.256547183
길흉부외과의원,"창원시 성산구 마디미로21번길 17 (상남동, 피아노빌딩8층)",128.686227945,35.221685560
내동의원,창원시 성산구 창원대로 726 (내동),128.670327694,35.217149953
웅이비인후과의원,"창원시 성산구 반송로 144 (반림동, 수영빌딩302호)",128.671081274,35.236055593
서울가정의원,"창원시 의창구 창이대로 203 (봉곡동, 101,102,105,106호)",128.659628919,35.245064656
티아라의원,"창원시 성산구 상남로 122 (상남동, 롯데메디컬6층)",128.683329369,35.223715674
삼성가정의학과의원,"창원시 성산구 창이대로 733 (사파동, 사파동성아파트상가A동226,22호)",128.702142202,35.219592111
강의원,"창원시 성산구 상남로192번길 41-3, 토우빌딩 (신월동)",128.691391972,35.227280098
선비뇨기과의원,"창원시 성산구 마디미서로 26 (상남동, 한독빌딩11층)",128.682580322,35.222834256
삼성연합의원,"창원시 성산구 창원천로 288 (반지동, 대동그린코아207-210호,215호)",128.669756596,35.245272410
이안과의원,창원시 의창구 읍성로 46 (중동),128.623181431,35.264799455
정영주안과의원,"창원시 성산구 가양로124번길 13 (대방동, 204호)",128.707548946,35.208241378
박희용의원,"창원시 의창구 팔용로 428 (팔용동, 드림피아상가406호)",128.612847550,35.254660735
한솔내과의원,"창원시 의창구 우곡로217번길 34 (명서동, 1,2,3,4층)",128.650311519,35.241563796
장진호마취통증의학과의원,"창원시 성산구 가음로13번길 33 (남양동, 남양종합상가303호)",128.700982036,35.213077641
윤앤김연합의원,창원시 의창구 동읍 자여로65번길 26 (2층),128.703365024,35.277567819
초록내과의원,"창원시 성산구 상남로 122 (상남동, 롯데메디컬10층)",128.683329369,35.223715674
화이트라인하얀피부과의원,"창원시 성산구 마디미서로 26 (상남동, 한독빌딩5층)",128.682580322,35.222834256
창원의원,창원시 의창구 읍성로 35-1 (북동),128.621938029,35.265086516
한미항외과의원,"창원시 의창구 의안로2번길 15 (소답동, 3,4층)",128.625515428,35.261754598
최이비인후과의원,"창원시 성산구 가음로13번길 33 (남양동, 남양상가304호)",128.700982036,35.213077641
속시원내과방사선과의원,"창원시 의창구 의안로31번길 28-5 (중동, 성우빌딩3,4층)",128.620941431,35.264679784
삼성이비인후과의원,창원시 의창구 팔용로 439 (팔용동),128.613176396,35.255865490
신세계비뇨기과의원,"창원시 의창구 의안로2번길 15 (소답동, 1층)",128.625515428,35.261754598
나병천정형외과의원,"창원시 성산구 가양로124번길 5-3 (대방동, 3,6층)",128.707092536,35.209042783
현대소아청소년과의원,창원시 의창구 동읍 동읍로 1,128.684480811,35.277390782
창원마취통증의학과의원,"창원시 의창구 명지로84번길 4 (명서동, 조아쇼핑202호)",128.646702154,35.248940427
이곤희가정의학과의원,"창원시 성산구 마디미서로 51, 4층 401호 (상남동, 서울메디칼빌딩 4층 401호)",128.681325319,35.220716958
강내과의원,"창원시 의창구 천주로 24 (서상동, 2층)",128.618378361,35.264070306
베스트의원,"창원시 성산구 마디미서로 51 (상남동, 서울메디컬빌딩 3층)",128.681325319,35.220716958
한병리과의원,"창원시 성산구 용지로 225 (용호동, 롯데상가3층302,304호)",128.685351100,35.233938123
대화이비인후과가정의학과의원,"창원시 성산구 대정로 77 (남양동, 성원1차아파트301,302,307,308호)",128.700981158,35.210794118
사림우리들의원,"창원시 의창구 사림로 47 (사림동, 사림프라자)",128.677939349,35.247462950
조은세상의원,"창원시 성산구 대암로 272 (대방동, 대방2차덕산타운)",128.708655124,35.203916684
밝은미래안과의원,"창원시 성산구 상남로 122 (상남동, 롯데메디컬)",128.683329369,35.223715674
정비뇨기과의원,"창원시 성산구 상남로 122 (상남동, 롯데메디컬)",128.683329369,35.223715674
이보람산부인과의원,"창원시 성산구 원이대로 591 (용호동, X프리빌딩)",128.679976372,35.228127015
박성희소아청소년과의원,"창원시 의창구 읍성로 60, 3층 (소답동)",128.624488632,35.264728055
백승호가정의학과의원,"창원시 의창구 도계로 57 (도계동, 도계중앙빌딩)",128.637754895,35.259495627
선린자모의원,"창원시 성산구 가양로124번길 7 (대방동, 선린빌딩)",128.707189172,35.208617455
서원교비뇨기과의원,"창원시 성산구 가양로124번길 15 (대방동, 대암빌딩)",128.707552307,35.208047098
내외상시인의원,"창원시 성산구 동산로 162 (사파동, 무궁화상가 2층)",128.693707272,35.221971887
시민내과의원,"창원시 의창구 원이대로 271 (봉곡동, 한마음타워)",128.650070080,35.243073530
안민하나의원,"창원시 성산구 안민로117번길 8 (안민동, 송원상가 201호)",128.689767494,35.186555791
구교준이비인후과의원,창원시 성산구 가양로124번길 17-12 (실로암빌딩 301),128.707863275,35.207817730
이길수이비인후과의원,"창원시 성산구 원이대로 666 (상남동, 금강빌딩)",128.686109098,35.223709830
안호준피부비뇨기과의원,"창원시 의창구 의창대로 72 (팔용동, 현대메디칼)",128.608244747,35.257496932
정태호내과의원,"창원시 성산구 동산로 124 (상남동, 성원그랜드쇼핑)",128.691613625,35.219342021
예인소아청소년과의원,"창원시 의창구 북면 감계로110번길 54-39, 4층 401,402호",128.595558403,35.301569399
하얀나라피부과의원,"창원시 성산구 마디미로21번길 17 (상남동, 피아노빌딩 3층)",128.686227945,35.221685560
삼성내과의원,"창원시 성산구 가양로124번길 17-16 (대방동, 동진메디칼)",128.708158233,35.207872440
꿈나무의원,"창원시 성산구 가양로124번길 23 (대방동, 크리스탈빌딩 7층)",128.707619389,35.207304827
조상일정형외과의원,"창원시 의창구 남산로 3 (팔용동, 현대빌딩)",128.611103534,35.260298958
창원연합내과영상의학과의원,"창원시 성산구 원이대로 664 (상남동, 창원메디컬)",128.685922479,35.223812691
바른마취통증의학과의원,"창원시 의창구 의창대로62번길 2 (팔용동, 동영오피스)",128.607308843,35.256547183
최정미산부인과의원,창원시 의창구 읍성로 38 (중동),128.622102860,35.264920324
영남제통마취통증의학과의원,"창원시 성산구 원이대로473번길 21 (반림동, 반림상가)",128.670159181,35.235582024
황내과의원,"창원시 성산구 창원천로 34, 2층 207-209호 (대원동, 대원 꿈에그린)",128.648734492,35.235019046
김서규이비인후과의원,"창원시 의창구 의안로31번길 28-10 (중동, 이제메디칼3층)",128.621145938,35.264881934
서울피부과의원,"창원시 성산구 원이대로 595 (용호동, 고운메디컬빌딩)",128.680165931,35.228009038
박창현신경외과의원,"창원시 성산구 가양로124번길 17-12 (대방동, 실로암빌딩)",128.707863275,35.207817730
박승호방사선과의원,"창원시 성산구 동산로 124 (상남동, 성원그랜드쇼핑)",128.691613625,35.219342021
파티마소아청소년과의원,"창원시 성산구 동산로 124 (상남동, 성원그랜드쇼핑)",128.691613625,35.219342021
이종인소아청소년과의원,"창원시 의창구 반계로 98 (팔용동, 벽산블루밍아파트 상가)",128.616486384,35.253718100
김내과의원,"창원시 의창구 반계로 98 (팔용동, 벽산블루밍아파트 상가)",128.616486384,35.253718100
정마취통증의학과의원,창원시 의창구 의안로31번길 28-5 (중동),128.620941431,35.264679784
유내과의원,"창원시 성산구 원이대로883번길 15-24 (가음동, 가음시장대상가)",128.696992119,35.208052672
중앙내과방사선과의원,"창원시 의창구 읍성로 46 (중동, 덕산메디칼)",128.623181431,35.264799455
이현제니스의원,창원시 의창구 지귀로 6 (봉곡동),128.648889722,35.243944296
인구보건복지협회경남지회 가족보건의원,"창원시 성산구 외동반림로126번길 56 (중앙동, 신관1,2층,구관1층)",128.676794481,35.226982706
박외과의원,창원시 의창구 대산면 주남로 574-8,128.708572279,35.334691579
김건용내과의원,"창원시 의창구 원이대로189번길 38 (명서동, 한성상가)",128.646292254,35.249206323
최봉기내과의원,"창원시 성산구 동산로 156 (사파동, 삼익종합상가)",128.693416077,35.221657227
팽봉기정형외과의원,"창원시 의창구 원이대로 269 (봉곡동, 한빛메디칼센터)",128.649762978,35.243334915
대항-청맥외과의원,"창원시 성산구 원이대로 664, 7층 (상남동, 창원메디컬)",128.685922479,35.223812691
영남의원,"창원시 성산구 신촌로 17 (신촌동, 낙지마당 양곡점)",128.626526347,35.207908990
연세이비인후과의원,"창원시 의창구 원이대로 283 (봉곡동, 청마상가)",128.650994389,35.242709399
새롬의원,"창원시 성산구 원이대로 654 (상남동, 세인프라자601호)",128.684901309,35.224371470
서울소아청소년과의원,"창원시 성산구 대정로 135 (대방동, 대방덕산타운)",128.707297435,35.212268715
임내과의원,"창원시 성산구 가양로124번길 17-12 (대방동, 실로암빌딩)",128.707863275,35.207817730
혜민의원,창원시 의창구 대산면 주남로 573,128.708093209,35.335023773
김준욱내과의원,"창원시 성산구 대정로 102 (남양동, 개나리3차아파트)",128.703905253,35.211147037
세일의원,"창원시 성산구 대암로 110 (대방동, 성원남산3차아파트)",128.708115823,35.215415193
정태기내과의원,"창원시 의창구 동읍 동읍로 9 (2,3층)",128.684380969,35.278112232
대방의원,"창원시 성산구 대정로 138 (대방동, 대방대동아파트)",128.707629837,35.211749085
소리사랑이비인후과의원,"창원시 성산구 동산로 124 (상남동, 성원그랜드쇼핑)",128.691613625,35.219342021
녹십자의원,창원시 성산구 원이대로883번길 15-34 (가음동),128.696995302,35.208487936
탁이비인후과의원,"창원시 성산구 동산로 124 (상남동, 성원그랜드쇼핑)",128.691613625,35.219342021
성민성형외과의원,"창원시 성산구 원이대로 587 (용호동, 정우상가)",128.679481329,35.228413966
조의제비뇨기과의원,"창원시 의창구 원이대로 283 (봉곡동, 청마상가)",128.650994389,35.242709399
대동외과의원,"창원시 성산구 원이대로 716 (상남동, 대동메디칼)",128.690161888,35.221036706
곽이비인후과의원,"창원시 의창구 창이대로309번길 7 (봉곡동, 중앙상가 202호)",128.670847926,35.246731526
소병헌이비인후과의원,"창원시 의창구 도계로 63 (도계동, 중앙상가연립)",128.638265014,35.258932600
박일순비뇨기과의원,"창원시 성산구 동산로 124 (상남동, 성원그랜드쇼핑)",128.691613625,35.219342021
최상호소아청소년과의원,"창원시 성산구 동산로 124 (상남동, 성원그랜드쇼핑)",128.691613625,35.219342021
차내과의원,"창원시 의창구 원이대로 283, 2층 206호 (봉곡동, 청마상가)",128.650994389,35.242709399
이부경내과의원,"창원시 의창구 도계로 61 (도계동, 의창새마을금고)",128.638079385,35.259141483
이대규내과의원,창원시 의창구 읍성로 77 (소답동),128.626486029,35.265147214
세준검진의원,"창원시 성산구 원이대로 320 (대원동, 더시티세븐상업동T501-2호)",128.653213815,35.240375612
고운피부과의원,창원시 성산구 동산로 124 (상남동),128.691613625,35.219342021
유명호안과의원,"창원시 성산구 동산로 124 (상남동, 성원그랜드쇼핑)",128.691613625,35.219342021
최성근이비인후과의원,"창원시 성산구 동산로 124 (상남동, 성원그랜드쇼핑)",128.691613625,35.219342021
메디컬조의원,"창원시 의창구 소계로 83-5 (소계동, 해맑은한의원)",128.599216827,35.256485150
서일의원,창원시 의창구 북면 천주로 1161,128.609110739,35.353860172
최익수의원,"창원시 의창구 태복산로3번길 35 (도계동, 최익수의원)",128.636677876,35.254988696
안내과의원,"창원시 성산구 대정로 33 (가음동, 황금상가)",128.698268214,35.207504837
최재선안과의원,"창원시 의창구 원이대로 283 (봉곡동, 청마상가)",128.650994389,35.242709399
참예쁜의원,"창원시 의창구 원이대로 283 (봉곡동, 청마상가)",128.650994389,35.242709399
조내과의원,"창원시 의창구 창이대로309번길 11 (봉곡동, 쌍둥이상가B동2층)",128.670780960,35.247120258
엘르메디여성의원,"창원시 의창구 서상로 1 (동정동, 엘르메디의원)",128.613490572,35.262283015
허내과의원,창원시 의창구 소계로84번길 3 (소계동),128.599757563,35.257077291
고외과의원,"창원시 성산구 동산로 124 (상남동, 성원종합상가504호)",128.691613625,35.219342021
봉의원,창원시 의창구 창이대로 201 (봉곡동),128.659447773,35.245009428
이재철피부과의원,"창원시 성산구 원이대로 587, 정우상가 3층 305호 (용호동)",128.679481329,35.228413966
최연극내과의원,"창원시 성산구 원이대로 587, 정우상가 3층 301호 (용호동)",128.679481329,35.228413966
윤종즙이비인후과의원,"창원시 성산구 원이대로 587, 정우상가 3층 (용호동)",128.679481329,35.228413966
김선경외과 박찬모내과의원,"창원시 성산구 원이대로473번길 13 (반림동, 2층)",128.669824244,35.235327693
정내과의원,"창원시 성산구 용지로 102 (중앙동, 개나리상가3층)",128.678350465,35.224478383
서민아산부인과의원,"창원시 마산회원구 양덕로 190, 7층 702호 (석전동)",128.580409698,35.234273205
서울튼튼정형외과의원,"창원시 마산회원구 용마로 130, 7층 701, 702호 (양덕동)",128.586123448,35.223620035
고운메디컬의원,"창원시 마산합포구 가포순환로 33, 상가1동 201-1호 (월영동, 마린애시앙부영)",128.564368670,35.176524274
맘편한여성의원,"창원시 마산회원구 북성로 108, 정영빌딩 2층 (회원동)",128.570669981,35.216890287
바로그의원,"창원시 마산합포구 삼호로 45, 2층 (산호동)",128.585380453,35.221456301
마디척의원,"창원시 마산회원구 내서읍 삼계로 9, 삼계크리닉빌딩 501호",128.503795314,35.231744593
서울정석정형외과의원,"창원시 마산합포구 해안대로 7, 경남은행 6층 603호 (월남동5가)",128.559749059,35.180779247
참좋은내과의원,"창원시 마산합포구 합포로 42, 2층 (남성동)",128.576415474,35.203796103
편하지의원,"창원시 마산회원구 용마로 130, 5층 (양덕동)",128.586123448,35.223620035
몸편한재활의학과의원,"창원시 마산회원구 3·15대로 733, 2층 (합성동)",128.581550394,35.237713667
연세편한마디내과의원,"창원시 마산회원구 3·15대로 770, 2,3층 (합성동)",128.584279113,35.240160572
더나은의원,"창원시 마산회원구 삼호로 80 (양덕동, 메트로시티 2단지)",128.585740711,35.225199910
엠에스피부과의원,"창원시 마산합포구 동서동2길 60, 3층 307~310호 (신포동2가)",128.574113830,35.201996045
서울삼성정형외과의원,"창원시 마산합포구 합포로 21, IBK저축은행 3층 (수성동)",128.574595704,35.203127010
박지성비뇨의학과의원,"창원시 마산회원구 3·15대로 780, 2층 (합성동)",128.584887275,35.240978957
척고은마취통증의학과의원,창원시 마산합포구 동서동2길 60 (신포동2가),128.574113830,35.201996045
박주현산부인과의원,"창원시 마산회원구 용마로 130, 메트로센텀 406호 (양덕동)",128.586123448,35.223620035
메트로 정형외과의원,"창원시 마산회원구 양덕로 120, 금천빌딩 2층 (양덕동)",128.585411471,35.229756181
더블유이비인후과의원,"창원시 마산합포구 월영남로 3, 403호 (해운동)",128.558635899,35.178425148
조수현신경과의원,"창원시 마산합포구 진동면 삼진의거대로 654, 진동농업협동조합 2층",128.488978310,35.116285277
시원한통사랑외과의원,"창원시 마산회원구 내서읍 삼계로 12, 4층 402호",128.503491560,35.232196785
현동라온소아청소년과의원,"창원시 마산합포구 현동1길 4-10, 2층 202호 (현동)",128.557960220,35.147175893
마산역신통의원,"창원시 마산회원구 마산역광장로 2, 2층 (석전동)",128.579650876,35.235088889
서울대화외과의원,"창원시 마산합포구 삼호로 45, 4, 5층 (산호동)",128.585380453,35.221456301
백이비인후과의원,"창원시 마산합포구 해안대로 7, 경남은행 301, 304호 (월남동5가)",128.559749059,35.180779247
바른손길마취통증의학과의원,"창원시 마산합포구 삼호로 45, 3층 (산호동)",128.585380453,35.221456301
수미래의원,"창원시 마산합포구 월영남로 3, 3층 (해운동)",128.558635899,35.178425148
뷰티제이의원,"창원시 마산회원구 양덕로 190, 7층 (석전동)",128.580409698,35.234273205
서울가정의학과의원,"창원시 마산합포구 현동4길 5, 3층 2, 3호 (현동)",128.553204684,35.150917504
양덕제일의원,창원시 마산회원구 양덕로 145 (양덕동),128.583417895,35.231250801
서울명외과의원,창원시 마산합포구 진동면 진북산업로 31,128.487879603,35.119029581
리엔신경과의원,창원시 마산회원구 내서읍 삼계로 10 (튼튼한약국),128.503718520,35.232235253
제니트비뇨기과의원,"창원시 마산회원구 내서읍 삼계로 7, 경남프라자동 6층 (가나약국)",128.504071935,35.231885091
신세계제통의원,"창원시 마산회원구 율림교로 13, 5층 (양덕동, 메트로엠)",128.584459092,35.229901175
새삼성내과의원,창원시 마산회원구 내서읍 삼계4길 34,128.503893184,35.233628627
중앙이비인후과의원,"창원시 마산합포구 3·15대로 192 (중앙동2가, 중앙동메디칼)",128.567158293,35.195225536
리엔의원,창원시 마산회원구 3·15대로 737 (합성동),128.581831913,35.238037550
서울의원,창원시 마산회원구 구암서6길 3 (구암동),128.592099141,35.247935184
합포중앙의원,"창원시 마산합포구 3·15대로 185, 4층 (중앙동2가)",128.566525818,35.194872236
항도외과의원,"창원시 마산합포구 3·15대로 255 (중앙동3가, 경남데파트)",128.567131160,35.200980867
라파의원,"창원시 마산회원구 석전동13길 18-30, 2층 (석전동)",128.577525560,35.232698208
진동삼성내과의원,"창원시 마산합포구 진동면 삼진의거대로 618, 202호",128.485901445,35.114420008
김앤김내과의원,"창원시 마산회원구 북성로 106 (회원동, 환금프라자)",128.570754933,35.216690349
박영호내과의원,"창원시 마산합포구 해안대로 7 (월남동5가, 경남은행)",128.559749059,35.180779247
아인스안과의원,"창원시 마산회원구 3·15대로 778 (합성동, 정비인후과의원)",128.584698644,35.240782608
메트로이비인후과의원,"창원시 마산회원구 양덕서로 47 (양덕동, 메트로스퀘어5)",128.581556824,35.229367077
참제일의원,"창원시 마산합포구 용마로 51 (산호동, 참빛제일의원)",128.580258673,35.218487520
큰나무정형외과의원,창원시 마산합포구 합포로 64 (동성동),128.578237864,35.205041475
BBC의원,"창원시 마산회원구 3·15대로 775 (합성동, 합성메디칼센타)",128.584060123,35.240971508
쉬즈미의원,창원시 마산회원구 내서읍 호원로 385,128.527510086,35.266548436
상쾌한항맥외과의원,"창원시 마산합포구 해안대로 7 (월남동5가, 경남은행)",128.559749059,35.180779247
삼성시원비뇨기과의원,"창원시 마산회원구 3·15대로 727 (합성동, 매디칼센타)",128.581227899,35.237241767
하희근내과의원,창원시 마산회원구 내서읍 삼계로 9 (남해횟집),128.503795314,35.231744593
회원마취통증의학과의원,"창원시 마산회원구 북성로 138 (회원동, 천지리치빌)",128.570994195,35.219548115
마산성모안과의원,"창원시 마산합포구 합포로 28 (남성동, 대동빌딩)",128.575459365,35.203047752
우리들의원,"창원시 마산합포구 천하장사로 87 (상남동, 우신뉴타워아파트)",128.572643609,35.211488992
소피마르소산부인과의원,"창원시 마산회원구 3·15대로 775 (합성동, 합성메디칼센타)",128.584060123,35.240971508
깨끗한의원,창원시 마산회원구 3·15대로 774-1 (합성동),128.584583904,35.240599706
우일정형외과의원,"창원시 마산합포구 3·15대로 192 (중앙동2가, 중앙동메디칼)",128.567158293,35.195225536
마산백내과의원,"창원시 마산회원구 3·15대로 778 (합성동, 정비인후과의원)",128.584698644,35.240782608
편한몸의원,"창원시 마산회원구 구암남10길 26 (구암동, 경일의원)",128.599077441,35.249505180
삼성내과의원,"창원시 마산합포구 월영남로 42 (월영동, 대동아파트)",128.558549525,35.174856800
연세소아청소년과의원,창원시 마산회원구 내서읍 광려천북로 184-1 (눈나라안경),128.523091938,35.266139547
김현수이비인후과의원,창원시 마산회원구 내서읍 삼계4길 17 (메디팜중앙약국),128.503643328,35.233003148
친절신경외과의원,"창원시 마산합포구 3·15대로 293 (서성동, 늘푸른선미술학원)",128.570025582,35.203185517
회산흉부외과의원,"창원시 마산합포구 북성로 99 (상남동, 동광빌딩)",128.570214911,35.216094659
선비뇨기과의원,"창원시 마산회원구 3·15대로 800 (합성동, 선비뇨기과의원)",128.585994528,35.242403659
행복한정형외과의원,창원시 마산회원구 내서읍 호계본동로 17-2 (코오롱그랜드쇼핑),128.521062003,35.261488836
아름다운피부과의원,"창원시 마산회원구 3·15대로 744 (합성동, 송하빌딩)",128.582877960,35.238305576
미소마취통증의학과의원,"창원시 마산회원구 3·15대로 768 (합성동, 마산시외버스터미널)",128.584118239,35.239964973
심앤장내과의원,"창원시 마산합포구 3·15대로 192 (중앙동2가, 중앙동메디칼)",128.567158293,35.195225536
김성섭마취통증의학과의원,"창원시 마산회원구 3·15대로 763 (합성동, 홍치과)",128.583306557,35.240041539
누리이비인후과의원,"창원시 마산합포구 3·15대로 259 (중앙동3가, 경남한의사신협)",128.567189753,35.201499798
유경식정형외과의원,창원시 마산회원구 내서읍 삼계로 9 (남해횟집),128.503795314,35.231744593
비앤에스의원,"창원시 마산합포구 해안대로 7 (월남동5가, 경남은행)",128.559749059,35.180779247
효도마취통증의학과의원,"창원시 마산합포구 합포로 56 (동성동, 패류살포양식수협)",128.577793972,35.204698962
굿모닝정형외과의원,"창원시 마산회원구 북성로 106 (회원동, 환금프라자)",128.570754933,35.216690349
세화의원,"창원시 마산합포구 자산서14길 95 (자산동, 상진힐프라자)",128.558838254,35.201486270
바른몸정형외과의원,"창원시 마산합포구 월영동로 1 (해운동, 한미메디칼센타)",128.562743055,35.180415105
최이비인후과의원,창원시 마산합포구 해안대로 3 (월남동5가),128.559291121,35.180673165
준이비인후과의원,창원시 마산회원구 내서읍 삼계로 10 (튼튼한약국),128.503718520,35.232235253
우리정형외과신경외과의원,"창원시 마산회원구 3·15대로 744 (합성동, 송하빌딩)",128.582877960,35.238305576
편한수의원,창원시 마산회원구 내서읍 상곡로 26-1 (열린약국),128.502364088,35.242957705
창원교도소의원,창원시 마산회원구 송평로 39 (회성동),,
한미메디내과진단방사선과의원,"창원시 마산합포구 월영동로 1 (해운동, 한미메디칼센타)",128.562743055,35.180415105
최은석이비인후과의원,창원시 마산회원구 내서읍 호계본동로 17-2 (코오롱그랜드쇼핑),128.521062003,35.261488836
이앤조내과의원,"창원시 마산합포구 서성로 48 (신포동2가, 대우메디칼빌딩)",128.571771900,35.201344733
위즈여성외과의원,"창원시 마산합포구 해안대로 11 (해운동, 월드프라자)",128.560237066,35.180633359
합성삼성내과의원,"창원시 마산회원구 3·15대로 785 (합성동, 거북이한의원)",128.584681983,35.241787187
신세계의원,"창원시 마산회원구 양덕서8길 9, 202호 (석전동)",128.578358336,35.231942561
속편한내과의원,"창원시 마산회원구 3·15대로 750 (합성동, 마산시외버스터미널)",128.583126240,35.238691457
동원내과의원,창원시 마산회원구 회원북13길 5 (회원동),128.570592510,35.221604863
배윤상내과의원,"창원시 마산회원구 3·15대로 768 (합성동, 마산시외버스터미널)",128.584118239,35.239964973
예일항맥외과의원,"창원시 마산회원구 3·15대로 645 (석전동, 예일메디컬센터)",128.576436017,35.230974379
나래정형외과의원,"창원시 마산회원구 3·15대로 662 (석전동, 나래정형외과)",128.578038642,35.231853552
예일내과의원,"창원시 마산회원구 3·15대로 645 (석전동, 예일메디컬센터)",128.576436017,35.230974379
홍내과의원,"창원시 마산합포구 자산삼거리로 2 (자산동, 남은빌딩)",128.567446366,35.202279587
삼성안과의원,창원시 마산회원구 내서읍 삼계로 12,128.503491560,35.232196785
탑비뇨기과의원,창원시 마산회원구 내서읍 경남대로 933,128.504248334,35.233380300
우리소아과의원,창원시 마산회원구 3·15대로 605 (석전동),128.574098470,35.227927634
세인의원,"창원시 마산합포구 교방시장2길 23 (교방동, 경남은행)",128.562407451,35.216304792
하나산부인과의원,"창원시 마산회원구 3·15대로 765-1, 3층 (합성동, 우성빌딩)",128.583442647,35.240129042
파티마마취통증의학과의원,"창원시 마산합포구 해안대로 7 (월남동5가, 경남은행)",128.559749059,35.180779247
김수영신경외과의원,"창원시 마산합포구 월영남로 3, 4층 401.402호 (해운동)",128.558635899,35.178425148
큰사랑외과의원,창원시 마산회원구 내서읍 삼계4길 17 (메디팜중앙약국),128.503643328,35.233003148
문창형내과의원,창원시 마산합포구 3·15대로 12 (월남동5가),128.558740778,35.181059905
가족사랑의원,창원시 마산회원구 구암남1길 78 (합성동),128.590207723,35.242058106
미래산부인과의원,"창원시 마산합포구 3·15대로 32 (월남동4가, 미래산부인과)",128.559674597,35.182671103
경남학문외과의원,"창원시 마산회원구 3·15대로 800 (합성동, 선비뇨기과의원)",128.585994528,35.242403659
이종흔안과의원,"창원시 마산회원구 3·15대로 750 (합성동, 마산시외버스터미널)",128.583126240,35.238691457
정정은산부인과의원,"창원시 마산합포구 가포로 8 (해운동, 선진빌딩)",128.558121294,35.179411714
류승환내과의원,창원시 마산회원구 내서읍 삼계6길 14 (포인포),128.503480487,35.232795840
어시장효자손마취통증의학과의원,"창원시 마산합포구 합포로 28 (남성동, 대동빌딩)",128.575459365,35.203047752
마산밝은안과의원,"창원시 마산합포구 해안대로 15 (해운동, 파라다이스빌딩)",128.560600390,35.180549219
석전의원,"창원시 마산회원구 석전동5길 37 (석전동, 석전의원)",128.574505571,35.230242771
정규덕비뇨기과의원,"창원시 마산합포구 월영동2길 3, 은아상가 4층 401·402호 (해운동)",128.558598532,35.179579704
케이씨에스마산수외과의원,"창원시 마산회원구 3·15대로 727 (합성동, 매디칼센타)",128.581227899,35.237241767
장편한내과의원,"창원시 마산회원구 3·15대로 780 (합성동, 행복한메디컬)",128.584887275,35.240978957
삼성산부인과의원,창원시 마산회원구 내서읍 호계본동로 17-2 (코오롱그랜드쇼핑),128.521062003,35.261488836
주의원,창원시 마산합포구 허당로 50 (산호동),128.581363159,35.210599360
박내과의원,"창원시 마산회원구 3·15대로 605-3 (석전동, 박의원)",128.574080271,35.228059912
누리안과의원,"창원시 마산합포구 가포로 8 (해운동, 선진빌딩)",128.558121294,35.179411714
삼성정형외과의원,창원시 마산회원구 내서읍 삼계4길 34,128.503893184,35.233628627
서울내과정형외과의원,"창원시 마산합포구 3·15대로 261, 2,3,4,8층 202호 (중앙동3가)",128.567230283,35.201632988
맑은의원,창원시 마산회원구 3·15대로 727 (합성동),128.581227899,35.237241767
봉암중앙의원,창원시 마산회원구 봉암북4길 8 (봉암동),128.596590777,35.221191076
혜승의원,창원시 마산합포구 진동면 해양관광로 20 (진동수산업협동조합),128.486765230,35.113063462
중앙자모의원,창원시 마산회원구 3·15대로 485 (회원동),128.574718615,35.217606870
허성희산부인과의원,창원시 마산합포구 합포로 243 (산호동),128.586906473,35.218848160
파티마안과의원,"창원시 마산합포구 합포로 26-1 (남성동, 경남약국)",128.575189639,35.202971285
참빛의원,창원시 마산합포구 삼호로 53 (산호동),128.584841668,35.222025286
현대의원,"창원시 마산회원구 구암서1길 51 (구암동, 문윤수치과의원)",128.592103536,35.247815047
강내과의원,창원시 마산합포구 산호북6길 26 (산호동),128.586862147,35.219092577
김윤규방사선과의원,창원시 마산회원구 3·15대로 779 (합성동),128.584343330,35.241233875
신세계산부인과의원,"창원시 마산합포구 해안대로 15 (해운동, 파라다이스빌딩)",128.560600390,35.180549219
예일안과의원,"창원시 마산회원구 3·15대로 659 (석전동, 예일안과)",128.577184590,35.232067138
재건항운외과의원,"창원시 마산회원구 북성로 107 (회원동, 재건약국)",128.570296721,35.216694938
성심방사선과의원,창원시 마산회원구 북성로 109 (회원동),128.570301251,35.216954366
성심내과의원,"창원시 마산회원구 북성로 109 (회원동, 성심신경정형외과)",128.570301251,35.216954366
세란정형외과의원,"창원시 마산합포구 3·15대로 34 (월남동4가, 장원빌딩)",128.559773976,35.182879717
예일이비인후과의원,"창원시 마산회원구 3·15대로 645, 예일메디컬센터 2,8,9층 3층(303)호, 6층(602)호 (석전동)",128.576436017,35.230974379
이호성피부과의원,"창원시 마산합포구 가포로 8 (해운동, 선진빌딩)",128.558121294,35.179411714
하사랑신경과의원,"창원시 마산회원구 3·15대로 727 (합성동, 매디칼센타)",128.581227899,35.237241767
이두하내과의원,"창원시 마산합포구 합포로 28 (남성동, 대동빌딩)",128.575459365,35.203047752
사마리아산부인과의원,"창원시 마산합포구 용마로 53 (산호동, 사마리아의원)",128.580447313,35.218593686
삼계중앙산부인과의원,창원시 마산회원구 내서읍 삼계로 12,128.503491560,35.232196785
연세남성비뇨기과의원,"창원시 마산합포구 서성로 48 (신포동2가, 대우메디칼빌딩)",128.571771900,35.201344733
창동학문외과의원,"창원시 마산합포구 문화의길 5 (오동동, 창동학문외과의원)",128.579969147,35.206831249
조문흠가정의학과의원,"창원시 마산합포구 중앙남6길 103 (장군동3가, 조문흠가정의학과의원)",128.564823781,35.196442474
영의원,"창원시 마산회원구 3·15대로 727 (합성동, 매디칼센타)",128.581227899,35.237241767
영남의원,창원시 마산합포구 구산면 구산로 547 (새마을금고),128.580495454,35.118879939
명내과의원,창원시 마산회원구 내서읍 삼계로 12,128.503491560,35.232196785
성내과의원,창원시 마산회원구 내서읍 상곡로 19 (신성네스트빌),128.503019831,35.242435767
세인성형외과의원,"창원시 마산회원구 3·15대로 645 (석전동, 예일메디컬센터)",128.576436017,35.230974379
김보현성형외과의원,"창원시 마산회원구 3·15대로 744 (합성동, 송하빌딩)",128.582877960,35.238305576
서정철내과의원,"창원시 마산회원구 양덕로 120, 금천빌딩 401호 (양덕동)",128.585411471,35.229756181
김용태내과의원,"창원시 마산회원구 북성로 120 (회원동, 김용태내과의원)",128.570761553,35.217771543
김의원,창원시 마산합포구 진동면 서촌숲끝길 5 (김의원),128.487269845,35.116020673
회성마취통증의학과의원,"창원시 마산합포구 가포로 12 (해운동, 선진상가)",128.558205672,35.179110315
이상훈의원,창원시 마산합포구 진동면 삼진의거대로 634,128.487136554,35.115295158
오용구내과의원,"창원시 마산회원구 3·15대로 727 (합성동, 매디칼센타)",128.581227899,35.237241767
중앙의원,"창원시 마산회원구 북성로 329 (회성동, 중앙의원)",128.561541514,35.233124804
이민희내과의원,창원시 마산회원구 내서읍 호계본동로 17-2 (코오롱그랜드쇼핑),128.521062003,35.261488836
정안과의원,"창원시 마산회원구 3·15대로 767, 1.2.3층 (합성동, 정안과의원)",128.583626549,35.240329381
김안과의원,창원시 마산회원구 3·15대로 669 (석전동),128.577822699,35.232925971
김영조내과의원,"창원시 마산합포구 가포로 12 (해운동, 선진상가)",128.558205672,35.179110315
한미정형외과의원,"창원시 마산합포구 서성로 57 (신포동2가, 한미정형외과의원)",128.571569202,35.202325859
김형곤이비인후과의원,"창원시 마산합포구 가포로 12 (해운동, 선진상가)",128.558205672,35.179110315
노홍기내과의원,"창원시 마산합포구 합포로 40 (남성동, 노홍기내과의원)",128.576299711,35.203720717
마산중앙의원,"창원시 마산합포구 교방시장2길 21, 2층 210호 (교방동, 교방주공시장(주))",128.562356404,35.216707869
서영도내과의원,"창원시 마산합포구 3·15대로 6 (해운동, 다우빌딩)",128.558841552,35.180268588
김제원내과의원,"창원시 마산회원구 양덕동2길 5, 3층 (양덕동)",128.590004165,35.221847401
이동헌비뇨기과의원,"창원시 마산회원구 회원동15길 11 (회원동, 천지리치빌)",128.571310332,35.219588939
제일소아과의원,창원시 마산회원구 내서읍 삼계5길 13 (삼계약국),128.503579877,35.231344832
김호준피부과의원,"창원시 마산합포구 합포로 35-1 (남성동, 김호준피부과의원)",128.575768826,35.203777779
세일정형외과의원,"창원시 마산회원구 북성로 120-1 (회원동, 서일정형외과의원)",128.570768637,35.217855625
김정암내과의원,"창원시 마산회원구 북성로 309 (회성동, 김정남내과의원)",128.563701536,35.232716377
합포내과의원,창원시 마산합포구 3·15대로 126 (중앙동1가),128.563121623,35.190322833
남마산외과의원,"창원시 마산합포구 문화북1길 25-1 (두월동1가, 남마산외과의원)",128.561378473,35.187862310
김태진피부과의원,"창원시 마산합포구 합포로 82 (오동동, 김태진피부의원)",128.579768786,35.206134817
마산제일외과의원,"창원시 마산합포구 북성로 87 (상남동, 마산제일외과의원)",128.570412890,35.214994160
최문섭피부과의원,"창원시 마산회원구 3·15대로 728 (합성동, 마산요리학원)",128.581886100,35.236954342
이인걸내과의원,"창원시 마산회원구 북성로 119 (회원동, 이인걸내과의원)",128.570410857,35.217917720
윤경준내과의원,"창원시 마산회원구 3·15대로 728 (합성동, 마산요리학원)",128.581886100,35.236954342
정이비인후과의원,"창원시 마산회원구 3·15대로 780 (합성동, 행복한메디컬)",128.584887275,35.240978957
박인조내과의원,"창원시 마산회원구 3·15대로 743 (합성동, 경남외국어학원)",128.582230975,35.238509170
전근택피부과의원,창원시 마산회원구 내서읍 상곡로 22 (중앙상가),128.503036847,35.242781919
고려의원,"창원시 마산회원구 회원남로 83 (회원동, 고려산부인과)",128.570355188,35.219268428
지상휘신경외과의원,창원시 마산회원구 내서읍 호원로 180 (지상휘신경외과),128.522503125,35.250046683
(사)한국건강관리협회건강증진의원,창원시 마산회원구 삼호로 107(양덕동),128.579885000,35.224376858
아세아정형외과의원,"창원시 마산회원구 3·15대로 737 (합성동, 아세아정형외과)",128.581831913,35.238037550
마산의원,"창원시 마산회원구 3·15대로 730-1 (합성동, 마산의원)",128.582057529,35.237194802
한국한센복지협회울산경남지부마산부설의원,"창원시 마산회원구 내서읍 호원로 153, 3, 4층",128.524060225,35.247944848
북마산정형외과의원,"창원시 마산회원구 북성로 139 (회원동, 북마산정형외과)",128.570508492,35.219642441
이피부과의원,"창원시 마산합포구 오동동1길 2 (동성동, 이피부과의원)",128.578843575,35.205383507
한양정형외과의원,"창원시 마산회원구 3·15대로 811 (합성동, 한양산부인과의원)",128.586135247,35.243631486
마산이비인후과의원,"창원시 마산회원구 3·15대로 741-1 (합성동, 마산이비인후과)",128.582032926,35.238366907
메리놀산부인과의원,"창원시 마산회원구 3·15대로 771 (합성동, 메리놀산부인과)",128.583927523,35.240605537
평안안과의원,"창원시 마산합포구 북성로 3 (창동, 평안안과의원)",128.573585800,35.207612738
한일정형외과의원,"창원시 마산합포구 합포로 84 (오동동, 한일정형외과의원)",128.579911499,35.206262314
성심마취통증의학과의원,"창원시 마산회원구 북성로 109 (회원동, 성심신경정형외과)",128.570301251,35.216954366
중앙신경외과의원,"창원시 마산합포구 합포로 86-1 (오동동, 중앙신경외과의원)",128.580164942,35.206487743
정산부인과의원,창원시 마산합포구 합포로 76 (오동동),128.579302702,35.205799189
박민준이비인후과의원,"창원시 마산합포구 합포로 69 (동성동, 박동석의원)",128.578614676,35.205728251
최내과의원,"창원시 마산합포구 합포로 71 (동성동, 고려신경외과)",128.578772066,35.205841085
허종해비뇨기과의원,"창원시 마산합포구 불종거리로 2 (남성동, 허종해비뇨기과의원)",128.577021823,35.204623941
사단법인대한산업보건협회부설마산의원,"창원시 마산회원구 자유무역2길 38 (양덕동, 대한산업보건센터)",128.590802057,35.212415074
강안과의원,"창원시 마산합포구 남성로 48 (서성동, 강안과의원)",128.571688005,35.204179819
이우홍비뇨기과의원,"창원시 마산합포구 남성로 43 (부림동, 이우홍비뇨기과의원)",128.571389848,35.204346881
마산제일내과의원,"창원시 마산회원구 북성로 127, 2층 201호 (회원동)",128.570420899,35.218764599
푸른이비인후과의원,"창원시 마산회원구 북성로 127, 202,203호 (회원동)",128.570420899,35.218764599
올바른마취통증의학과의원,"창원시 마산회원구 북성로 127, 3층 301, 302호 (회원동)",128.570420899,35.218764599
마법의원,"창원시 마산합포구 3.15대로 261, 2층 (중앙동3가)",128.567230283,35.201632988
진해의원,"창원시 진해구 냉천로 87, Y-Zone 3층 304호 (석동)",128.706510340,35.153276069
서울신경과의원,"창원시 진해구 냉천로 87, Y-Zone 202호,302호호 (석동)",128.706510340,35.153276069
용원중앙내과의원,"창원시 진해구 용원동로 231, 4층 401,402,403호 (용원동)",128.818605490,35.093572037
삼성서울정형외과의원,"창원시 진해구 진해대로776번길 27, 온메디컬센터 이동 201,202,204호 (이동)",128.698396274,35.156159030
더나은정형외과의원,"창원시 진해구 진해대로776번길 28, 진해농협종합회관(하나로마트) B동 2층 202호 (석동)",128.698399899,35.157657582
바른피부과의원,"창원시 진해구 진해대로776번길 28, 진해농협종합회관(하나로마트) 석동동 2층 203호 (석동)",128.698399899,35.157657582
조준형내과의원,"창원시 진해구 진해대로776번길 28, 진해농협종합회관(하나로마트) B동 201호 (석동)",128.698399899,35.157657582
숨피부과의원,"창원시 진해구 행암로 12, MS빌딩 7층 703, 704호 (장천동)",128.708117107,35.130417499
삼성탑내과의원,"창원시 진해구 진해대로 752, 아리온시네마빌딩 201호 (석동)",128.697466774,35.158808305
좋은이비인후과의원,"창원시 진해구 신항4로 47-26, 마린타워 301,302호 (용원동)",128.815392930,35.087764287
김가정의학과의원,"창원시 진해구 장복대로 171, 다온빌딩 402호 (자은동)",128.712721089,35.155131521
고운의원,"창원시 진해구 냉천로 87, Y-Zone 4층 401,402호 (석동)",128.706510340,35.153276069
이현연합의원,"창원시 진해구 신항동로 141, 205,217,204-1호 (용원동, 애플타운 헤리티지)",128.813489675,35.088364041
연세속편한내과의원,"창원시 진해구 충장로657번길 28, 이엠시티빌딩 3층 303,304호 (장천동)",128.706596383,35.130551272
닥터에스의원,"창원시 진해구 안골로 336, 형제빌딩 2층 201호 (용원동)",128.809877986,35.101095568
서울센텀신경외과의원,"창원시 진해구 웅천동로106번길 31, 센텀빌딩 3층 (남문동)",128.752853607,35.105267967
엘소아청소년과의원,"창원시 진해구 남영로 56, 더원프라자 3층 302호 (남문동)",128.751877417,35.105604136
코끼리마취통증의학과의원,"창원시 진해구 풍호로3번길 4, 3층,4층 (풍호동)",128.701835784,35.139917175
신항내과의원,"창원시 진해구 신항동로 141, 210호 (용원동, 애플타운 헤리티지)",128.813489675,35.088364041
수소아청소년과의원,"창원시 진해구 충장로657번길 20, 현대빌딩 2층 201호 (장천동)",128.705740172,35.130573172
남문내과의원,"창원시 진해구 웅천동로 126, 제이원빌딩 2층 201,202호 (남문동)",128.751019279,35.106439484
프라임본의원,"창원시 진해구 충장로 140-1, 한일빌딩 1층 102호 (충무동)",128.667473469,35.151660581
행복플러스내과의원,"창원시 진해구 충장로657번길 30, 1층 (장천동)",128.707031146,35.130596138
고은미래의원,"창원시 진해구 진해대로776번길 27, 302호 (이동, 온메디컬센터)",128.698396274,35.156159030
바른재활의학과의원,"창원시 진해구 충장로657번길 20 (장천동, 현대빌딩 402, 403호)",128.705740172,35.130573172
백내과의원,"창원시 진해구 진해대로776번길 27, 402호 (이동, 온메디컬센터 )",128.698396274,35.156159030
파티마이비인후과 의원,"창원시 진해구 충장로657번길 28, 5층 (장천동, 이엠시티빌딩 507호)",128.706596383,35.130551272
흰토끼의원,"창원시 진해구 진해대로 999, 201호 (자은동, 하이존)",128.707833220,35.140317025
한울의원,"창원시 진해구 용원동로 262, 2층 (용원동, 다우리빌딩)",128.820314289,35.096206532
황재욱정형외과의원,"창원시 진해구 풍호로 11 (풍호동, 신세계메디칼 4층)",128.702678072,35.139909866
상쾌한이비인후과의원,"창원시 진해구 진해대로 999, 2층 (자은동, 하이존빌딩)",128.707833220,35.140317025
중앙의원,"창원시 진해구 충장로 129-1, 중앙의원 1층 (여좌동)",128.666334198,35.152403085
문희건희망내과의원,"창원시 진해구 충장로 133, 701호 (여좌동, 진해메디칼센타)",128.666701024,35.152541289
복음외과의원,창원시 진해구 충장로 162 (충무동),128.669770634,35.151827400
안이비인후과의원,창원시 진해구 충장로 126 (충무동),128.665721938,35.151885102
용원성모안과의원,창원시 진해구 안골로 338 (용원동),128.809938530,35.101287483
우리연합의원,창원시 진해구 진해대로921번길 6 (자은동),128.707661064,35.147131094
송림의원,"창원시 진해구 동진로 138, 205호 (덕산동, 송림홈타운)",128.702709596,35.145000232
석동내과연합의원,"창원시 진해구 냉천로 91, 102호 (석동, 벚꽃메디칼상가)",128.706723426,35.153359434
임재영피부과의원,"창원시 진해구 충장로 361, 401호 (경화동, 그랜드메디컬)",128.691675835,35.154005283
이종협내과의원,"창원시 진해구 용원로7번길 9, 301호 (용원동, 서정빌딩)",128.810195365,35.101232822
박우생소아청소년과의원,"창원시 진해구 풍호로 41 (자은동, 407호)",128.705723354,35.140094656
삼성비뇨기과의원,"창원시 진해구 해원로 34, 301호 (이동, 예일빌딩)",128.697354333,35.154922392
열린이비인후과의원,"창원시 진해구 해원로 43, 601동 2층 (석동, 우림필유아파트)",128.697268640,35.155790149
진해힐링안과의원,창원시 진해구 충장로 128 (충무동),128.665879912,35.151727248
명성마취통증의학과의원,창원시 진해구 충장로 361 (경화동),128.691675835,35.154005283
미즈여성의원,"창원시 진해구 진해대로776번길 25, 4층 (이동, 상보빌딩)",128.698520755,35.156408340
에이스비뇨기과의원,창원시 진해구 냉천로 83 (석동),128.706118796,35.153141117
행복한산부인과의원,"창원시 진해구 용원로 9, 엠파이어상가 304호 (용원동)",128.810542842,35.100684914
맑은샘내과의원,"창원시 진해구 천자로413번길 5, 2층 (풍호동, 토원오피스텔상가)",128.709697048,35.135560163
서울내과의원,"창원시 진해구 냉천로 87, Y-Zone 301,303호 (석동)",128.706510340,35.153276069
청음이비인후과의원,"창원시 진해구 충장로 361, 그랜드메디컬 2층 201호 (경화동)",128.691675835,35.154005283
유소아청소년과의원,"창원시 진해구 안골로 339 (용원동, 코아루상가 201호)",128.807169824,35.100577221
제일의원,"창원시 진해구 웅동로 72, 2층 201호 (마천동, 남명프라자)",128.784120833,35.124553987
우리이비인후과의원,창원시 진해구 안골로 336 (용원동),128.809877986,35.101095568
김종휘비뇨기과의원,"창원시 진해구 안골로 336, 3층 (용원동, 형제빌딩)",128.809877986,35.101095568
박재석내과의원,"창원시 진해구 용원로 9 (용원동, 엠파이어빌딩 403호)",128.810542842,35.100684914
맑은눈안과의원,"창원시 진해구 충장로 361, 301호 (경화동, 그랜드메디컬)",128.691675835,35.154005283
한솔내과의원,창원시 진해구 충장로 111 (여좌동),128.664269153,35.152560997
미의원,"창원시 진해구 충장로 133, 4층 (여좌동, 진해메디칼센타)",128.666701024,35.152541289
오성웅내과의원,"창원시 진해구 냉천로 83, 203호 (석동, 석동메디칼빌딩)",128.706118796,35.153141117
미래이비인후과의원,"창원시 진해구 냉천로 91, 2층 (석동, 벚꽃메디칼상가)",128.706723426,35.153359434
석동정형외과연합의원,"창원시 진해구 냉천로 91, 102호 (석동, 벚꽃메디칼상가)",128.706723426,35.153359434
한마음정형외과의원,"창원시 진해구 용원로 9 (용원동, 엠파이어빌딩 402호)",128.810542842,35.100684914
남철우내과의원,"창원시 진해구 안골로 348, 용원그랜드쇼핑 405호 (용원동)",128.810292571,35.102023923
육내과의원,"창원시 진해구 충장로 361, 2층 203호 (경화동, 그랜드메디컬)",128.691675835,35.154005283
류영철안과의원,"창원시 진해구 냉천로 87, 203호 (석동, Y-Zone빌딩)",128.706510340,35.153276069
권기호내과의원,창원시 진해구 냉천로 69 (석동),128.704712176,35.152437821
김기민소아청소년과의원,창원시 진해구 충장로 133 (여좌동),128.666701024,35.152541289
신세계의원,"창원시 진해구 풍호로 11, 2층 (풍호동, 신세계빌딩)",128.702678072,35.139909866
공정형외과의원,"창원시 진해구 충장로 133 (여좌동, 진해메디칼센타)",128.666701024,35.152541289
새진해의원,"창원시 진해구 냉천로 51, 1층 (석동, 진해메디칼)",128.702944065,35.151840711
조은이비인후과의원,"창원시 진해구 냉천로 83, 석동메티칼빌딩 석동 201, 204호 (석동)",128.706118796,35.153141117
정기문내과의원,창원시 진해구 충장로 134-1 (충무동),128.666552609,35.151740671
조이비인후과의원,"창원시 진해구 충장로 121, 2층 (여좌동)",128.665380435,35.152489577
진해프라임비뇨기과의원,"창원시 진해구 충장로 130, 3층 (충무동)",128.666317300,35.151831119
이대원산부인과의원,"창원시 진해구 충장로 140-1, 2층 (충무동, 한일빌딩)",128.667473469,35.151660581
성심의원,창원시 진해구 경화시장로 9 (경화동),128.690680806,35.154517238
웅천제림의원,창원시 진해구 웅천중로 52 (남문동),128.749988621,35.110372814
임정식내과의원,창원시 진해구 충장로 82 (충무동),128.661094088,35.152334770
양내과의원,"창원시 진해구 충장로 126 (충무동, 김안과)",128.665721938,35.151885102
웅동의원,"창원시 진해구 웅동로 63, 2층 (마천동)",128.783656622,35.125227816
이영구이비인후과의원,"창원시 진해구 벚꽃로 60-1, 1층 (송학동)",128.662736282,35.150938847
박광선소아청소년과의원,"창원시 진해구 안골로 344, 용원마이다스빌딩 3층 303호 (용원동)",128.810189618,35.101651947
진해영상의학과의원,"창원시 진해구 충장로 130, 2층 (충무동, 평화빌딩)",128.666317300,35.151831119
하비뇨기과의원,"창원시 진해구 충장로 133 (여좌동, 진해메디칼센타 2층)",128.666701024,35.152541289
진해안과의원,창원시 진해구 충장로 131 (여좌동),128.666446573,35.152390377
제민의원,"창원시 진해구 진해대로913번길 5, 201호 (자은동)",128.707650965,35.148131575
홍관식내과의원,창원시 진해구 충장로 106-1 (충무동),128.663628031,35.152004692
한국한센복지협회 울산경남지부 진주부설의원,진주시 남강로 1483 (하대동),128.127816033,35.193277482
연세의원,진주시 진주대로1063번길 10 (대안동),128.082956793,35.194291804
김정현의원,"진주시 비봉로24번길 16, 2층 (중안동)",128.082805896,35.193093533
김정중이비인후과의원,진주시 촉석로186번길 8 (중안동),128.082440777,35.194507511
강이비인후과의원,진주시 촉석로 188 (대안동),128.082629490,35.195130073
진주소아과의원,"진주시 진주대로 558, 2층 (가좌동)",128.107722657,35.156338488
진주이비인후과의원,진주시 진주대로 1051 (대안동),128.084032360,35.193400679
박비뇨기과의원,"진주시 촉석로 201, 2층 (대안동)",128.084010837,35.195821382
진주성모의원,"진주시 진주대로 1081, 2층 (평안동)",128.083060484,35.195948942
김승기소아과의원,"진주시 도동천로 84, 3층 (상대동)",128.109720312,35.179145426
서울내과의원,진주시 동진로 126 (상대동),128.104883219,35.179182966
"미피부과,성형외과의원","진주시 남강로 706, 2,3층 (장대동)",128.088665526,35.191317470
속편한 심당내과의원,진주시 진주대로 922 (칠암동),128.089526220,35.182687963
유성기정형외과의원,진주시 모덕로 216-1 (상대동),128.117691685,35.188490607
문산성모의원,진주시 문산읍 동부로591번길 4,128.164708404,35.168114550
대곡의원,진주시 대곡면 남강로2438번길 56,128.168523252,35.261819390
박정열이비인후과의원,진주시 촉석로190번길 12 (대안동),128.082961053,35.194443427
심대석내과의원,진주시 동진로 178 (상대동),128.110593631,35.179479943
정승화비뇨기과의원,진주시 비봉로34번길 13 (중안동),128.082203517,35.194165129
이성수안과의원,"진주시 진주대로 863, 2-4, 6층 (주약동)",128.091447546,35.177656304
목화사랑의원,진주시 동진로 130-1 (상대동),128.105394222,35.179228373
영채내과의원,"진주시 향교로 13, 2층,3층,9층 (수정동)",128.084052788,35.197864276
권형진소아과의원,"진주시 진양호로 344, 1층 (신안동)",128.068020292,35.183277543
평강외과의원,진주시 진주성로 47-1 (봉곡동),128.077066759,35.193938859
연세의원,진주시 망경로296번길 2 (망경동),128.085437174,35.185186160
제일안과의원,"진주시 사들로 91, 3층 301호,302호 (충무공동)",128.148749654,35.175826127
신안마취통증의학과의원,진주시 장대로 12 (장대동),128.089018067,35.192565257
조내과의원,"진주시 망경로296번길 17, 101호 (강남동, 강남한주한보타운)",128.086279837,35.184095124
김종철재활의학과의원,"진주시 진주대로 909, 4층 (강남동)",128.089603206,35.181404903
강진수피부과의원,진주시 동진로 184 (상대동),128.111211626,35.179475957
가좌그린의원,진주시 내동로 356 (가좌동),128.102962359,35.150549452
진주비뇨기과의원,"진주시 진주대로1080번길 4, 3층 (대안동)",128.083745854,35.195911367
목산정형외과의원,진주시 진양호로 344 (신안동),128.068020292,35.183277543
이재경소아과의원,"진주시 도동로 224, 2층 (하대동)",128.122232371,35.190207980
참조은산부인과의원,진주시 진양호로 317 (신안동),128.066064498,35.181516984
세인비뇨기과의원,진주시 도동로 214 (하대동),128.122390429,35.189404825
진주재활의학과의원,진주시 대신로 325 (하대동),128.116584428,35.189608009
연세안과의원,"진주시 진주대로 1065, 2,3층 (대안동)",128.083499273,35.194630960
김현근이비인후과의원,"진주시 동진로 182, 2층 (상대동)",128.111062349,35.179498612
현대성형외과의원,진주시 남강로 702-1 (장대동),128.088431930,35.191386484
김도형마취통증의학과의원,"진주시 진양호로 568, 1층 (장대동)",128.087373637,35.193770778
보람산부인과의원,진주시 진양호로 255 (평거동),128.062517106,35.176819131
진주박안과의원,"진주시 진주대로 1064, 3,4,5,6층 (대안동)",128.084064741,35.194494737
성재준이비인후과의원,"진주시 진양호로 296, 2층 (신안동)",128.065248758,35.179569179
금산복음의원,진주시 금산면 금산로 78,128.144954789,35.214497209
보람소아청소년과의원,진주시 진양호로 255 (평거동),128.062517106,35.176819131
강기동정형외과의원,"진주시 진양호로 317 (신안동, 참조은산부인과)",128.066064498,35.181516984
지앤미의원,"진주시 진양호로 568-1, 6층 (장대동)",128.087505732,35.193829378
강준형이비인후과의원,"진주시 도동로 211, 2층 (하대동)",128.121935756,35.189143540
문산현대의원,"진주시 문산읍 동부로 571, 1층",128.162771436,35.166602577
성신가정의학과의원,"진주시 진주대로 1206, 2층 (봉곡동)",128.071305894,35.194431188
이화소아청소년과의원,"진주시 석갑로53번길 28, 2층 (평거동, 들말대경아파트)",128.063096561,35.174986415
신선경소아청소년과의원,"진주시 도동천로 43, 2층 (상대동)",128.105537001,35.178585945
해맑은피부과의원,"진주시 진주대로 1081, 3층 (평안동)",128.083060484,35.195948942
대곡중앙의원,진주시 대곡면 진의로 1075,128.169012895,35.262701300
김미봉소아청소년과의원,"진주시 범골로60번길 16, 아름파크빌딩 3층 (충무공동)",128.132409868,35.169765328
좋은가정의학과의원,진주시 창렬로114번길 3 (상봉동),128.069984871,35.197716307
중앙마취통증의학과의원,"진주시 진주대로 894-3, 3층 (칠암동)",128.090817584,35.180332149
금산가정의학과의원,"진주시 금산면 금산순환로 24, 301-302호",128.147551328,35.216415174
김성기내과의원,진주시 평거로13번길 17 (평거동),128.061880383,35.173360466
우리신경외과의원,"진주시 솔밭로 133, 1,2,3,5층 (상대동)",128.106679714,35.181096189
하얀메디컬의원,"진주시 진주대로 1110, 지하1층,지상1-4층 (계동)",128.081322840,35.197321111
금산우리내과의원,"진주시 금산면 중천로 80, 202호,203호",128.145746594,35.217645252
정앤남정형외과의원,"진주시 진양호로 556-1 (장대동, 수협은행)",128.086342911,35.193443976
송환규내과의원,진주시 도동천로 117 (상대동),128.112224678,35.181580565
김영선가정의학과의원,진주시 동진로 176 (상대동),128.110305384,35.179429372
삼성내과의원,"진주시 동진로 171 (상대동, 자유시장)",128.109820726,35.179868742
한솔정형외과의원,"진주시 도동로 234, 2층 (하대동)",128.122214400,35.191166812
강동의원,"진주시 진양호로 555, 2,3층 (장대동)",128.086105799,35.193814370
한빛재활의학과의원,"진주시 동진로 146, 2층 (상대동)",128.107163892,35.179313439
김의곤비뇨기과의원,진주시 진양호로 288 (신안동),128.064764181,35.178918963
서울산부인과의원,"진주시 동진로 176, 2층 (상대동, 옥산빌딩)",128.110305384,35.179429372
서봉관내과의원,"진주시 촉석로201번길 5, 2,3층 (평안동)",128.083663880,35.196090791
이현한일의원,"진주시 평거로 225, 2층 (이현동)",128.064006777,35.187413433
푸른내과의원,"진주시 남강로 684, 4,5층 (동성동, 호서빌딩)",128.086352968,35.191169345
이용섭내과의원,진주시 진양호로 288 (신안동),128.064764181,35.178918963
변종필이비인후과의원,진주시 진주대로 889 (강남동),128.090451039,35.179700152
진주신경외과의원,"진주시 하대로 80, 1,5층 (하대동, 메디칼팜빌딩)",128.120368048,35.192903318
김균환정형외과의원,"진주시 대신로 289 (상대동,(2층))",128.116755753,35.186196032
곽영태가정의학과의원,진주시 창렬로 144 (상봉동),128.072932492,35.198623972
신세계비뇨기과의원,"진주시 동진로 172, 3층 302호 (상대동, 세원빌딩)",128.109963570,35.179404484
참편한가정의학과의원,"진주시 가호로 26, 206,207호 (가좌동, 가좌주공아파트)",128.108565852,35.161398400
이현의원,진주시 서장대로 263 (이현동),128.062094023,35.191822950
진주항맥외과의원,진주시 진주대로 594 (가좌동),128.107815726,35.159715040
최영미내과의원,"진주시 촉석로 206-1, 2층 (대안동)",128.084593100,35.195702097
류경렬내과의원,진주시 도동천로 43 (상대동),128.105537001,35.178585945
굿모닝비뇨기과의원,진주시 진주대로 1065 (대안동),128.083499273,35.194630960
옥봉성심의원,"진주시 진산로 5, 2층 (옥봉동, 새마을금고)",128.091801656,35.193426484
미소가정의학과의원,진주시 금산면 금산순환로 34,128.148042374,35.217080204
청담화이트의원,"진주시 진주대로 514, 301호 (가좌동, 프리월빌딩)",128.105952136,35.152642282
티아라의원,"진주시 남강로 696, 2층 (장대동)",128.087858045,35.191300377
서울의원,진주시 일반성면 동부로1993번길 14,128.281099633,35.170356934
진주21세기마취통증의학과의원,"진주시 서장대로 274, 1,2층 (이현동)",128.063192653,35.191721496
큰나무정형외과의원,"진주시 진양호로 276, 3층 (신안동)",128.064113316,35.178057091
미소인의원,"진주시 진양호로531번길 3, 2층 (대안동)",128.083380282,35.193073762
김동건안과의원,진주시 진양호로 288 (신안동),128.064764181,35.178918963
혁신마취통증의학과의원,"진주시 사들로 87, 2층 (충무공동)",128.148772279,35.175537325
밝은안과의원,"진주시 동진로 175, 3층 (상대동)",128.110475729,35.179839927
늘푸른의원,진주시 진양호로125번길 4 (평거동),128.053491053,35.168540759
신수경산부인과의원,"진주시 진주대로1080번길 4, 2층 (대안동)",128.083745854,35.195911367
비엔코이비인후과의원,"진주시 도동로 260, 3층 (하대동)",128.122086406,35.193517074
라인여성의원,"진주시 향교로 13, 5층 (수정동, 영채메디컬센터)",128.084052788,35.197864276
누리봄소아청소년과의원,"진주시 금산면 중천로 80, 4층 401호",128.145746594,35.217645252
제일편한내과의원,"진주시 진양호로 457, 2층 (인사동)",128.076002506,35.190726394
정효영내과의원,"진주시 진주대로 628, 3층 (가좌동)",128.106688100,35.162673554
하나여성의원,"진주시 진양호로 346, 2층 (신안동)",128.068095539,35.183392750
반성연합의원,"진주시 일반성면 동부로 1945, 1,2층",128.275823981,35.172248847
아름다운피부과의원,"진주시 진주대로 880, 2층 (칠암동)",128.091333297,35.179172731
한빛연합소아청소년과의원,"진주시 진주역로95번길 25, 202호 (가좌동)",128.111717165,35.151917932
혁신프롤로의원,"진주시 에나로175번길 11, 2034호 (충무공동, 혁신도시중흥에스-클래스센트럴시티4단지)",128.145663489,35.174826453
김양수소아청소년과의원,"진주시 대신로 477, 2층 (초전동)",128.115719139,35.203233100
예인안과의원,진주시 도동로 222 (하대동),128.122302250,35.190075138
서진의원,"진주시 금산면 금산순환로 9, 세종빌딩 2층",128.146204440,35.215204921
사랑의원,진주시 진양호로 477 (인사동),128.077398751,35.191713034
송안과이비인후과의원,"진주시 향교로 13, 7층 (수정동, 영채메디컬)",128.084052788,35.197864276
다나마취통증의학과의원,"진주시 향교로 13, 1-2호 (수정동, 영채메디칼빌딩)",128.084052788,35.197864276
조은산부인과의원,"진주시 도동로 233, 썬빌딩 3층 (하대동)",128.121806763,35.191160292
진주성형외과의원,"진주시 남강로 676-1, 1층 (동성동)",128.085692202,35.190899686
좋은소아청소년과의원,"진주시 순환로 527, 4층 (평거동)",128.061436208,35.171204501
메트로정형외과의원,"진주시 가호로 41, 2층,3층,4층 (호탄동)",128.110664486,35.163844477
미래마취통증의학과의원,"진주시 진주대로 922, 3층 (칠암동, 가우정빌딩)",128.089526220,35.182687963
이혜영소아청소년과의원,진주시 강변길 4 (호탄동),128.111155122,35.164109053
삼일의원,"진주시 일반성면 동부로 2025, 2층",128.283334113,35.170661973
새진주내과의원,"진주시 진양호로 221, 2층 (평거동, 진주평거 우방아이유쉘 스카이팰리스)",128.060214302,35.173870634
삼성홍문외과의원,"진주시 대신로 294, 7, 8층 (상대동)",128.117347043,35.186792004
비앤비의원.한의원,진주시 진양호로 145 (평거동),128.055151685,35.169310864
차용우 이비인후과의원,진주시 진양호로 276 (신안동),128.064113316,35.178057091
진주마취통증의학과의원,"진주시 순환로 527, 3층 (평거동)",128.061436208,35.171204501
솔내과의원,진주시 초장로14번길 20 (초전동),128.114413209,35.205073955
속시원한사랑내과의원,"진주시 진주대로 1182 (봉곡동, 세원빌딩2층)",128.073868998,35.195119503
삼성가정의학과의원,진주시 천수로 176-5 (망경동),128.084505869,35.179969659
평거연합의원,"진주시 진양호로 125, 2층 (평거동)",128.053173666,35.168183555
신내과의원,진주시 도동로 200 (하대동),128.122370461,35.188015781
김형준내과의원,"진주시 대신로 301, 2층 (상대동)",128.116671006,35.187361769
고운피부과의원,"진주시 순환로 527, 2층 (평거동, 좋은메디컬빌딩)",128.061436208,35.171204501
고운아이소아청소년과의원,"진주시 평거로13번길 23, 2층,3층 (평거동)",128.062131208,35.173967463
가야자모의원,"진주시 진주대로 869, 5층 (주약동)",128.091167997,35.178058440
미앤뉴피부과의원,"진주시 도동로 233, 4층 (하대동)",128.121806763,35.191160292
서울이비인후과의원,진주시 진주대로 869 (주약동),128.091167997,35.178058440
더조은내과의원,"진주시 순환로 527, 좋은메디컬빌딩 5,6층 (평거동)",128.061436208,35.171204501
안용준내과의원,진주시 장대로 12 (장대동),128.089018067,35.192565257
신통마취통증의학과의원,"진주시 촉석로 206, 4층 (대안동)",128.084465491,35.195507011
복음내과의원,"진주시 순환로 539, 2층 (평거동, 오승빌딩)",128.060690519,35.172107760
미즈여성의원,"진주시 순환로 527 (평거동, 좋은메디칼빌딩 9층)",128.061436208,35.171204501
LH의원,"진주시 충의로 19, 2층 (충무공동, LH본사 늘벗동)",128.145769597,35.178169789
온고을마취통증의학과의원,"진주시 도동로 233, 2층 (하대동)",128.121806763,35.191160292
하내과의원,"진주시 새평거로 25, 2층 (평거동, 더 퀸즈 웰가)",128.049577979,35.166558804
좋은안과의원,"진주시 순환로 527 (평거동, 좋은메디컬빌딩)",128.061436208,35.171204501
라움의료소비자생활협동조합라움의원,"진주시 진양호로 227, 로얄빌딩 8층 (평거동)",128.061032009,35.174624075
강심내과의원,"진주시 진양호로 72, 4층 (평거동)",128.047644897,35.166863561
아이맘소아청소년과의원,"진주시 초북로 46, 2층 (초전동)",128.111470460,35.212569632
씨앤디의료소비자생활협동조합 펭귄의원,"진주시 대신로 313, 2층 (상대동)",128.116571046,35.188406173
임종범이비인후과의원,"진주시 순환로 527, 7층 (평거동, 좋은메디칼빌딩)",128.061436208,35.171204501
조은마취통증의학과의원,"진주시 동진로 172, 2,3층 (상대동, 세원빌딩)",128.109963570,35.179404484
닥터하맥의원,"진주시 진양호로 284, 4층 (신안동)",128.064550271,35.178626751
성심메디컬의원,"진주시 서장대로213번길 5, 지하1, 1~4층 (이현동)",128.056065758,35.190776644
속튼튼혁신내과의원,"진주시 사들로 97, 3층 301, 302호 (충무공동)",128.148556933,35.176277721
유승석내과의원,"진주시 초북로 54, 효원빌딩 2층 (초전동)",128.111070817,35.213382602
서울성모의원,"진주시 초전북로51번길 10, 1층 (초전동)",128.112514860,35.209319761
수이비인후과의원,"진주시 사들로 56, 3층 305,306호 (충무공동)",128.149092171,35.172674971
김나영내과의원,"진주시 진주대로 957, 미래여성병원 1층 (강남동)",128.087334720,35.185253173
"아이비소아청소년과,이비인후과의원","진주시 향교로 3, 1,3층 102,303,304,305호 (평안동, 진주롯데인벤스)",128.083212135,35.197848550
진주신경과의원,"진주시 진주대로816번길 18-1, 명성빌딩 2층 (주약동)",128.095728985,35.173934316
서울마취통증의학과의원,"진주시 진주대로 1192, 2층 (봉곡동)",128.072902369,35.194855237
삼성고인돌정형외과의원,"진주시 진양호로 563, 안성빌딩 1층 101호 (장대동)",128.086837699,35.194152770
이동원내과의원,"진주시 대신로 310, 기업은행 2층 (상대동)",128.117279150,35.188066383
서명기내과의원,"진주시 순환로 529, 영성빌딩 3층 (평거동)",128.061321477,35.171468856
청담필의원,"진주시 순환로 529, 2층 (평거동)",128.061321477,35.171468856
바로마디정형외과신경외과내과의원,"진주시 새평거로 129, 가온빌딩 5,6,9층 (평거동)",128.061085479,35.170919488
봄소아청소년과의원,"진주시 사들로 56, 2층 206호 (충무공동)",128.149092171,35.172674971
구민지소아청소년과의원,"진주시 초북로 56-8, 2층 (초전동)",128.111438561,35.213690424
동행의원,"진주시 진주대로 628, 2층 (가좌동)",128.106688100,35.162673554
밝은삼성안과의원,"진주시 진주대로 888, 아이비타워 5층 503호 (칠암동)",128.091059134,35.179810183
스카이비뇨의학과의원,"진주시 진양호로 206, BYC 진주빌딩 3층 307호308호309호 (평거동)",128.060080189,35.172581153
용한신경외과의원,"진주시 충의로 119, A동 2층 210~213호 (충무공동)",128.152183220,35.174517245
김병수내과의원,"진주시 도동로 184, 2-3층 (하대동)",128.122491546,35.186628629
혁신이비인후과의원,"진주시 사들로 97, 2층 202호203호 (충무공동)",128.148556933,35.176277721
김태효탑내과의원,"진주시 순환로 530, 2층 (평거동)",128.061842287,35.171853883
강남JC성형외과의원,"진주시 진양호로 206, BYC 진주빌딩 3층 301-302호 (평거동)",128.060080189,35.172581153
진주참신경외과의원,"진주시 초전북로 55, 201호 (초전동)",128.112650370,35.208773054
서울제일의원,"진주시 창렬로 163, 2층 (상봉동)",128.074805397,35.199425761
한솔내과의원,"진주시 도동로 234, 한솔빌딩 3층 (하대동)",128.122214400,35.191166812
혁신우리안과의원,"진주시 사들로 50, 401호, ND빌딩 (충무공동)",128.148657319,35.172031818
진주항외과의원,"진주시 진양호로 497, 2층 (중안동)",128.080021921,35.192016723
튼튼한정형외과의원,"진주시 사들로 50, 201호 (충무공동)",128.148657319,35.172031818
미시안의원,"진주시 에나로128번길 17, 센트럴타워 6층 (충무공동)",128.143882327,35.176518630
테스내과의원,"진주시 대신로 294, 102호 (상대동)",128.117347043,35.186792004
당샘내과의원,"진주시 관문로 7, 율곡스퀘어 프런티어 203,205호 (가좌동)",128.116812285,35.152179960
굿앤센신경외과의원,"진주시 동진로 22, 아주스타타워 8,9층 (칠암동)",128.093638038,35.178525805
진주비타민의원,"진주시 순환로 530, 4층 (평거동)",128.061842287,35.171853883
초전마취통증의학과의원,"진주시 초전북로 65, 2층 (초전동)",128.113894673,35.208765809
제일꼼꼼내과의원,"진주시 진양호로 91, 3층 301호 (평거동)",128.049726632,35.167369952
박소라내과의원,"진주시 초전북로 65, 3층 301호 (초전동)",128.113894673,35.208765809
남강 수 성형외과의원,"진주시 동진로 22, 아주스타타워 5층 (칠암동)",128.093638038,35.178525805
 씨앤디의료생활협동조합 펭귄의원(혁신점),"진주시 에나로 103-9, 3층 (충무공동)",128.140273007,35.178591486
하나의원,진주시 도동천로 74 (상대동),128.108869392,35.178655519
압구정라엘성형외과의원,"진주시 진주대로 1081, 5층 (평안동)",128.083060484,35.195948942
압구정미인의원,"진주시 남강로309번길 42-14, 401호 (평거동)",128.060840775,35.171924468
성현내과의원,"통영시 광도면 죽림2로 49-10, 2층 201호",128.418611474,34.880533754
통영종로마취통증의학과의원,"통영시 중앙로 281, 6층 (북신동)",128.428452568,34.855480787
통영튼튼한신경외과의원,"통영시 중앙로 297, 삼성생명빌딩 3,6층 (북신동)",128.427984694,34.856802324
신통신경과의원,"통영시 북신시장1길 19, 203호 (북신동)",128.428070804,34.856095370
통영루가의원,"통영시 광도면 죽림5로 55-9, KD빌딩 6층 601호",128.421642431,34.884960240
DO두신경과의원,"통영시 무전대로 41, 101~401호 (무전동)",128.425197166,34.860406353
북신내과의원,"통영시 중앙로 281, 2층 (북신동)",128.428452568,34.855480787
더나은의원,"통영시 광도면 죽림4로 9, 2층 (이마트통영점)",128.417971058,34.887158632
박의원,"통영시 무전5길 12-5, 4층 (무전동, 화동빌딩)",128.426499830,34.860731245
좋은의원,"통영시 중앙로 334-1, 4층 (무전동)",128.429173271,34.860065111
우리신경외과의원,통영시 중앙로 134-1 (항남동),128.423028440,34.843569737
우리들내과의원,"통영시 중앙로 150-1, 2층 3층 (중앙동, 중앙빌딩)",128.423653193,34.845062805
제일마취통증의학과의원,"통영시 중앙로 289, 그랜드빌딩 501호 (북신동)",128.428349489,34.856176785
김종국내과의원,"통영시 미수로 107, 3층 (미수동)",128.401176233,34.825000806
한마음의원,통영시 동문로 9-1 (태평동),128.424916473,34.846488691
현대의원,"통영시 광도면 죽림4로 24, 2층 (통영종합터미널)",128.416908531,34.885111721
제니트비뇨기과의원,"통영시 중앙로 289, 701호 (북신동, 그랜드빌딩)",128.428349489,34.856176785
한가족의원,"통영시 광도면 죽림1로 41-23, 309동 203호 (한선파라디움상가)",128.417439444,34.877464358
명인마취통증의학과의원,"통영시 무전대로 10, 3층 (무전동, 다보빌딩)",128.421763470,34.860258540
김재원이비인후과의원,"통영시 무전8길 13-38, 601호 (무전동, 진우하이빌1차상가)",128.427850677,34.858132009
통영자모소아청소년과의원,"통영시 무전대로 4, 201호 (무전동, 장미빌딩)",128.421127544,34.860186807
김태진정형외과의원,"통영시 미우지4길 2, 2층 (미수동)",128.401813031,34.825684266
박지영소아청소년과의원,통영시 광도면 죽림1로 17-51 (동성프라자),128.415258131,34.879734418
열린내과의원,"통영시 중앙로 158-2, 2층 (문화동)",128.423852943,34.845664459
제일외과의원,"통영시 새터길 20, 1층,2층,4층,5층 (서호동)",128.418163728,34.840988211
서울정형외과의원,통영시 중앙로 311 (무전동),128.428212887,34.858131054
닥터라인의원,"통영시 중앙로 289, 5층 (북신동)",128.428349489,34.856176785
최해종내과의원,"통영시 광도면 죽림1로 17-31, 2층 (아담 트리플)",128.415009579,34.878909808
삼성안과의원,"통영시 중앙로 160, 2층 2,3,4호 (태평동, 충무데파트)",128.424294471,34.845963199
통영중앙신경외과의원,"통영시 중앙로 150-1, 6층 601호 (중앙동)",128.423653193,34.845062805
날씬의원,"통영시 중앙로 301, 1동 201호 (북신동, 화룡빌딩)",128.428120976,34.857292994
통영신경외과의원,통영시 안개로 45-10 (무전동),128.430503916,34.859796985
김기성피부과의원,"통영시 중앙로 240, 4층 (북신동)",128.428353445,34.851805701
속편한내과의원,통영시 중앙로 89 (서호동),128.418899152,34.842021911
통영연합의원,"통영시 동문로 3-1, 2층 (태평동)",128.424306805,34.846347814
최내과의원,통영시 새터길 20 (서호동),128.418163728,34.840988211
한양의원,통영시 중앙로 160 (태평동),128.424294471,34.845963199
다미인의원,"통영시 광도면 죽림해안로 64-6, 그랑블루빌딩 3층",128.422139948,34.885084200
김진구이비인후과의원,"통영시 원문로 12, 204호 (북신동, 진우데파트)",128.427490133,34.857455252
우리가정의원,통영시 미우지4길 2 (미수동),128.401813031,34.825684266
성모안과의원,"통영시 중앙로 303, 양희빌딩 4,5층 (북신동)",128.428199304,34.857448259
동남의원,통영시 중앙로 295 (북신동),128.428173294,34.856468651
김영호내과의원,통영시 중앙로 287 (북신동),128.428359628,34.856005126
미래산부인과의원,"통영시 중앙로 311, 3층 (무전동)",128.428212887,34.858131054
삼성정형외과의원,통영시 중앙로 309 (무전동),128.428208492,34.857914744
윤의원,"통영시 중앙로 120, 3층 (항남동, 동보빌딩)",128.422192499,34.842345702
김선우이비인후과의원,통영시 중앙로 153-4 (문화동),128.423392492,34.845577960
신세계소아청소년과의원,"통영시 광도면 죽림2로 49-10, 401호 (미래메디칼센타)",128.418611474,34.880533754
강태훈소아청소년과의원,"통영시 중앙로 240, 3층 (북신동, 통영메디칼)",128.428353445,34.851805701
한빛의원,통영시 한실7길 1-6 (인평동),128.397545066,34.840340402
세진의원,통영시 도남로 181 (도남동),128.423942294,34.829635516
김형곤내과의원,통영시 도남로 89 (봉평동),128.414379044,34.831409526
한사랑의원,통영시 통영해안로 367 (동호동),128.427574571,34.844452997
최진화비뇨기과의원,통영시 중앙로 90 (서호동),128.419195833,34.841637522
통영자모산부인과의원,"통영시 무전대로 4, 201호,301호 (무전동, 장미빌딩)",128.421127544,34.860186807
한일의원,"통영시 안개로 7, 1,2,3층 (무전동, 한일의원)",128.429212261,34.857566198
김우신성형외과의원,통영시 중앙로 307 (무전동),128.428192799,34.857725591
삼성늘푸른정형외과의원,통영시 중앙로 309 (무전동),128.428208492,34.857914744
통영예일안과의원,"통영시 중앙로 240, 2,6층 (북신동)",128.428353445,34.851805701
평화소아청소년과의원,통영시 중앙로 289 (북신동),128.428349489,34.856176785
표광민내과의원,통영시 북문2길 6 (북신동),128.428726039,34.852058518
장이비인후과의원,"통영시 중앙로 264, 송림데파트 2층 203호 (북신동, 송림데파트)",128.429117912,34.854105256
성모의원,통영시 새터길 15 (도천동),128.417685859,34.840801916
한려의원,통영시 해송정1길 6 (동호동),128.427430376,34.843927988
서울피부과의원,"통영시 중앙로 301, 4층 (북신동)",128.428120976,34.857292994
충무방사선과의원,"통영시 중앙로 281, 3층 (북신동, 흥국생명빌딩)",128.428452568,34.855480787
충무제일신경외과의원,통영시 안개1길 44 (무전동),128.429486106,34.859335610
김안과의원,"통영시 중앙로 129, 2층 (항남동, 천보빌딩)",128.422562911,34.843304514
정비뇨기과의원,"통영시 중앙로 151-4, 2층 (중앙동)",128.423308046,34.845303794
임병화의원,통영시 중앙로 160 (태평동),128.424294471,34.845963199
사천윤내과의원,"사천시 정동면 옥산로 46, 401.403호",128.087901656,35.079338360
사천시원재활의학과의원,"사천시 정동면 옥산로 46, 201호",128.087901656,35.079338360
박이비인후과의원,"사천시 사천읍 평화1길 42, 202,302호",128.088635856,35.082943823
청아여성의원,"사천시 중앙로 124, 2~4층 (벌리동)",128.078918823,34.936701354
한상현신경과의원,"사천시 사천읍 진삼로 1473, 201호",128.085878465,35.082700579
노량의원,"사천시 벌리로 5, 삼천포농협북부지소 3층 (벌리동)",128.080365811,34.938868752
삼천포 튼튼정형외과의원,"사천시 동금로 7, 메디칼빌딩 2층 (동금동)",128.076936794,34.932223683
사천성모의원,"사천시 정동면 진삼로 1436, 사천성모병원",128.086652574,35.079215108
수양 마취통증의학과 의원,"사천시 사천읍 옥산로 59, 2층",128.089519002,35.079742068
우리아이소아청소년과의원,사천시 사천읍 진삼로 1481 (우리메디컬빌딩),128.085634328,35.083406684
우리메디컬의원,"사천시 사천읍 진삼로 1481, 2층 (우리메디컬빌딩)",128.085634328,35.083406684
김산내과의원,"사천시 주공로 98, 산메디칼빌딩 (용강동)",128.085017751,34.945749976
부산외과의원,사천시 벌리로 5 (벌리동),128.080365811,34.938868752
사천제일의원,사천시 사천읍 진삼로 1491,128.085618153,35.084470922
사천김안과의원,사천시 사천읍 읍내1길 57,128.086655216,35.082473686
서울하얀의원,"사천시 동금로 7, 4층 (동금동)",128.076936794,34.932223683
우리의원,사천시 서부시장길 35 (동동),128.071672021,34.927874283
푸른벗정형외과의원,사천시 주공로 7 (벌리동),128.085946016,34.938930773
보람산부인과의원,"사천시 사천읍 진삼로 1492, 2층 202호 (영신빌딩)",128.085988845,35.084422388
제일의원,사천시 곤양면 성내1길 10 (석곡화원),127.961820333,35.057256592
사남의원,"사천시 사남면 병둔2길 18-12, 1층",128.075303972,35.051998289
대남의원,사천시 사천읍 진삼로 1470,128.086236308,35.082399121
신내과의원,"사천시 사천읍 진삼로 1480, 1층 (동아빌딩)",128.086290982,35.083443339
완사고려의원,사천시 곤명면 완사1길 20,127.976985587,35.132508173
누가의원,사천시 중앙로 74 (동금동),128.076714539,34.932618264
한양신통의원,사천시 주공로 27 (벌리동),128.086347676,34.940855971
송이비인후과의원,사천시 사천읍 읍내1길 60,128.087094640,35.082515419
삼성연합의원,사천시 곤양면 서삼로 5,127.961545071,35.056879537
삼천포성모안과의원,"사천시 중앙로 122, 1,2층 (벌리동)",128.078849015,34.936540576
서포중앙의원,"사천시 서포면 서포로 281, 서포새마을금고 1층",127.976322887,35.007575922
삼성의원,"사천시 임내길 11, 2층 (죽림동, 판매장)",128.063794912,34.969600415
메리놀내과의원,사천시 동금로 3 (동금동),128.076677825,34.932461479
이홍기가정의학과의원,사천시 중앙로 46 (선구동),128.075309939,34.930313732
현대마취통증의학과의원,사천시 중앙로 126 (벌리동),128.079020362,34.936889694
사천연합의원,사천시 사천읍 평화1길 42,128.088635856,35.082943823
박내과의원,사천시 사천읍 읍내1길 57,128.086655216,35.082473686
김내과의원,"사천시 주공로 25, 2층 (벌리동)",128.086333766,34.940712841
이신규소아과의원,사천시 주공로 12-1 (벌리동),128.086685653,34.939353224
박재본정형외과의원,사천시 사천읍 진삼로 1458-6,128.086730554,35.081365302
김소아청소년과의원,사천시 사천읍 진삼로 1448,128.086584788,35.080551732
늘푸른산부인과의원,사천시 중앙로 126 (벌리동),128.079020362,34.936889694
곽안과의원,사천시 중앙로 68 (동금동),128.076284254,34.932112795
김주태비뇨기과의원,"사천시 동금로 3, 3,4층 (동금동)",128.076677825,34.932461479
동신의원,"사천시 중앙로 149, 2층 (벌리동)",128.079567898,34.938956696
장내과의원,사천시 중앙로 44 (선구동),128.075125073,34.930100790
성가정의원,사천시 곤양면 곤양로 112,127.961159548,35.057061392
장이비인후과의원,사천시 중앙로 127 (벌리동),128.078500767,34.937121494
삼천포내과의원,사천시 중앙로 131 (벌리동),128.078755210,34.937592686
삼천포정형외과의원,사천시 중앙로 129 (벌리동),128.078664675,34.937402840
삼계성모안과의원,"김해시 삼계중앙로 33, 201호 (삼계동)",128.868641371,35.260773211
블리비의원,"김해시 가락로 24, 7~8층 (부원동)",128.882580944,35.228694260
힐링의원,"김해시 해반천로144번길 29-16, 리치프라자 502호 (삼계동)",128.870688009,35.261951086
365연합소아청소년과의원,"김해시 주촌면 천곡로 6, 401호",128.839160936,35.234005533
에이블러의원,"김해시 주촌면 선천남로 62, 701호",128.841184507,35.230854954
뮤즈의원,"김해시 내외중앙로 92, 501호 (내동)",128.867685184,35.238080471
더고운의원,"김해시 가락로 24, 3층 (부원동)",128.882580944,35.228694260
시원내과정형외과의원,"김해시 가락로 24, 4~5층 (부원동)",128.882580944,35.228694260
바로그의원,"김해시 가락로 19, 아름다운 뉴욕 메디컬센터 3층 301호 (부원동)",128.882195934,35.228349536
친절한내과의원,"김해시 내외중앙로 35, 아카데미 빌딩 401호 (외동)",128.866054876,35.233239998
문지윤내과의원,"김해시 삼계중앙로 40, 2~4층 (삼계동)",128.869452909,35.260302249
활기찬마취통증의학과의원,"김해시 내외중앙로 27, 301~304호 (외동)",128.865898920,35.232399307
임수진심내과의원,"김해시 내외중앙로 84, 3층 (내동)",128.867554616,35.237365115
참좋은신경외과의원,"김해시 삼계중앙로 37, 우성빌딩 201호 (삼계동)",128.869196439,35.260815274
외동튼튼정형외과의원,"김해시 내외중앙로 35, 아카데미 빌딩 301호 (외동)",128.866054876,35.233239998
현대정형외과의원,"김해시 구산로 19, 2층 (구산동)",128.870878613,35.249019751
서울베스트신경외과의원,"김해시 가락로 23, 1층 (부원동)",128.882166689,35.228653906
돋보기피부과의원,"김해시 내외중앙로 74, 밝은메디칼센터 302호 (내동)",128.867383404,35.236474529
조이성형외과의원,"김해시 내외중앙로 57, 경남프라자 203,204호 (내동)",128.866449914,35.235244074
주촌굿모닝의원,"김해시 주촌면 천곡로 14, 3층",128.838196059,35.233977029
서울마취통증의학과의원,"김해시 구산로 33, 1,3,4층 (구산동)",128.872304250,35.249037979
노블레스강영석성형외과의원,"김해시 분성로 228, 나비빌딩 601호 (외동)",128.871457919,35.231201751
신세계안과의원,"김해시 분성로 216, 304호 (외동)",128.870369299,35.230604036
으뜸내과의원,"김해시 삼계중앙로 36, 4,5층 (삼계동)",128.868982310,35.260258945
함춘서울내과의원,"김해시 내외중앙로 81, 동화선프라자 201호 (내동)",128.866836667,35.237254586
데일리필의원,"김해시 가락로 24, 6층 (부원동)",128.882580944,35.228694260
메디라움의원,"김해시 내외중앙로 81, 701,702,703호 (내동)",128.866836667,35.237254586
꿈을그린이비인후과의원,"김해시 분성로 30, 외동이진캐스빌2차아파트 104동(상가) 110호 (외동)",128.850739813,35.232427732
가슴속사랑내과의원,"김해시 삼계중앙로 27, 삼계메디칼 2층 201호 (삼계동)",128.867930307,35.260726158
코끼리정형외과의원,"김해시 삼계중앙로 36, 201호 (삼계동)",128.868982310,35.260258945
강남닥터우성형외과의원,"김해시 내외중앙로 35, 아카데미 빌딩 201,202호 (외동)",128.866054876,35.233239998
방미지유항외과의원,"김해시 내외중앙로 50, 401호 (외동)",128.866961037,35.234318503
새찬신경외과의원,"김해시 내외중앙로 57, 401호 (내동)",128.866449914,35.235244074
좋은소아청소년과의원,"김해시 김해대로2715번길 37, 2층 (지내동)",128.922596591,35.231158877
우성경내과의원,김해시 가락로 88 (서상동),128.881646454,35.234301660
새한마음내과의원,"김해시 가락로 19, 201, 202호 (부원동, 아름다운뉴욕메디컬센터)",128.882195934,35.228349536
센텀이비인후과의원,"김해시 가락로 19, 2층 (부원동, 아름다운뉴욕메디컬센터)",128.882195934,35.228349536
김해신세계의원,김해시 김해대로 2359 (부원동),128.884844705,35.226852067
새봄산부인과의원,"김해시 삼계중앙로 56, 201호 (삼계동)",128.871121197,35.260433662
미미썸의원 김해점,"김해시 경원로 67, 4~5층 (내동)",128.867510272,35.237180174
새한빛정형외과의원,"김해시 활천로 229, 2,3,6,7,8층 (어방동)",128.904397904,35.242680572
우리가정의원,"김해시 가락로 237, 201호 (구산동, 시영아파트)",128.872966797,35.246008666
화인마취통증의학과의원,"김해시 가락로 19, 아름다운 뉴욕 메디컬센터 5.6층 (부원동)",128.882195934,35.228349536
이동건이비인후과의원,"김해시 가야로30번길 1, 2층 (삼계동)",128.864040217,35.269659640
(재)대한불교관음종 대동의원,김해시 대동면 동남로85번길 48,128.991330241,35.237834953
늘사랑가족의원,"김해시 김해대로2492번길 20, 2층 (삼정동, 메가마트 김해점)",128.900916603,35.226443168
제이즈의원,"김해시 삼계중앙로 45, 3층 (삼계동)",128.869959386,35.260841344
권병표내과의원,김해시 함박로101번길 2 (외동),128.865484227,35.232421969
평선의료소비자생활협동조합 김해사랑의원,김해시 가락로29번길 4 (부원동),128.881835853,35.229342947
김남주이비인후과의원,"김해시 해반천로144번길 40, 거림맥스랜드 201호 (삼계동)",128.871618082,35.261224906
에스피부과의원,"김해시 내외중앙로 84, 서울메디컬센터 6층 (내동)",128.867554616,35.237365115
박영진의원,"김해시 삼안로111번길 5 (안동, 한일아파트 상가)",128.916617282,35.237793694
속편안내과의원,"김해시 구산로 31, 501호 (구산동)",128.872116499,35.249041312
한미의원,"김해시 분성로 170, 2층 (외동)",128.865454858,35.229653981
김해마취통증의학과의원,"김해시 가락로 26, 부원프라자 302호 (부원동)",128.882671437,35.228919528
준이비인후과의원,"김해시 삼계중앙로 27, 삼계메디칼 2,3층 (삼계동)",128.867930307,35.260726158
서울이비인후과의원,"김해시 내외중앙로 84, 10.11층 (내동, 서울메디컬센터)",128.867554616,35.237365115
초이스의원,"김해시 삼계중앙로 35, 203호 (삼계동, 서주빌딩)",128.868918996,35.260792581
김해속시원내과의원,"김해시 활천로267번길 24, 2층 (삼방동)",128.908614799,35.245153249
화이트필의원,"김해시 내외중앙로 60, 201호 (내동)",128.867111209,35.235153671
삼계밝은안과의원,"김해시 삼계중앙로 27, 301호 (삼계동, 삼계메디칼)",128.867930307,35.260726158
아이비이비인후과의원,"김해시 내외중앙로 92, 4층 (내동)",128.867685184,35.238080471
허비뇨기과의원,김해시 인제로 163 (어방동),128.903597763,35.243143208
장윤석정형외과의원,"김해시 내외로 79, 6층 (내동)",128.865950706,35.234836203
명성마취통증의학과의원,"김해시 내외중앙로 60, 3층 (내동, 신한프라자)",128.867111209,35.235153671
김해밝은안과의원,"김해시 내외중앙로 74, 401호 (내동, 밝은메디컬센터)",128.867383404,35.236474529
김부진소아청소년과의원,"김해시 활천로 190, 1층 (어방동)",128.900701599,35.241906161
수사랑의원,"김해시 김해대로 2078, 2층 (내동, 삼성홈플러스)",128.869147370,35.241585562
참사랑의원,"김해시 분성로 14-4, 203호 (외동, 상가동 )",128.848767958,35.230793688
상동의원,김해시 상동면 동북로 463,128.968484872,35.314120320
티아라의원,"김해시 내외중앙로 40, 3층 (외동)",128.866676132,35.233438968
하얀피부과의원,"김해시 가락로 26, 2층 202호 (부원동)",128.882671437,35.228919528
미다모아의원,"김해시 내외중앙로102번길 5, 301,302호 (내동)",128.868283926,35.239086532
늘편한내과의원,"김해시 경원로73번길 7, 204호 (내동, 태성레스파빌딩 )",128.867988135,35.237455862
서울피부과의원,"김해시 내외중앙로 62, 201호 (내동)",128.867170790,35.235370243
삼성비뇨기과의원,"김해시 삼계중앙로 29, 201호 (삼계동, 일송프라자)",128.868125627,35.260734299
밝은내일통증의학과의원,"김해시 삼계중앙로 41, 601호 (삼계동, 월드프라자)",128.869693288,35.260868508
이&훈소아청소년과의원,김해시 삼계중앙로 22 (삼계동),128.867557327,35.260047099
바른등신경외과의원,"김해시 금관대로 1294, 4층 (내동)",128.861461584,35.239601168
강춘화여성의원,김해시 인제로 180 (어방동),128.904176847,35.244569287
김성훈소아청소년과의원,"김해시 삼안로 228, 201층 (삼방동, 동원아파트 상가동)",128.911080181,35.248404677
한빛학문외과의원,"김해시 활천로 229, 3, 7층 (어방동)",128.904397904,35.242680572
한빛내과의원,"김해시 인제로 190, 선교빌딩 4층 (어방동)",128.904189239,35.245583131
밝은눈안과의원,"김해시 인제로 174, 2층 (어방동)",128.904182873,35.244061337
김옥용의원,"김해시 활천로36번길 27-9, 202호 (삼정동, 삼성빌딩)",128.895574242,35.232136892
아름다운피부과의원,"김해시 가락로 23, 당당메디컬센터 3층 (부원동)",128.882166689,35.228653906
김정주정형외과의원,"김해시 가락로 11, 3,5,6층 (부원동)",128.882322543,35.227467474
미포유의원,"김해시 내외중앙로 34, 405호 (외동, 메트로타워2)",128.866675843,35.232840794
박현우소아청소년과의원,"김해시 삼계로 250, 204호 (삼계동, 분성마을2단지부영아파트상가)",128.866908171,35.266588638
다사랑의원,김해시 삼안로221번길 8-8 (삼방동),128.910229699,35.248024366
예원이비인후과의원,김해시 인제로 174 (어방동),128.904182873,35.244061337
이재우이비인후과의원,"김해시 내외중앙로 47, 204호 (외동, 위너스프라자)",128.866270540,35.234289756
하나내과의원,김해시 가락로 272 (구산동),128.873497068,35.249446591
다사랑산부인과의원,"김해시 삼안로195번길 29, 2층 (삼방동, 가야메디칼)",128.908972999,35.244781944
강남비뇨기과의원,"김해시 분성로 321, 303호 (서상동, 골든에비뉴)",128.881128539,35.233608373
늘푸른의원,"김해시 함박로101번길 6, 203호 (외동, 임호빌딩)",128.865523817,35.232629412
황혜란산부인과의원,김해시 분성로 130 (외동),128.861010998,35.229976904
백태현내과의원,"김해시 분성로 130, 2층 (외동)",128.861010998,35.229976904
박정규정형외과의원,김해시 분성로 130 (외동),128.861010998,35.229976904
박성욱내과의원,"김해시 삼계중앙로 22, 301호 (삼계동, 서빈굿타임빌딩)",128.867557327,35.260047099
홍주성의원,"김해시 인제로 174, 3층 (어방동, 만정빌딩)",128.904182873,35.244061337
유&김내과의원,김해시 인제로 168 (어방동),128.904152379,35.243573695
김해대항외과의원,"김해시 가락로 101 (서상동, (주)덕성)",128.881061108,35.235555180
박양훈내과의원,김해시 가락로 27 (부원동),128.882135410,35.228925118
이찬은가정의학과의원,김해시 활천로 182 (어방동),128.900697457,35.241220185
김경환내과의원,"김해시 김해대로 2342, 502호 (부원동, 아이스퀘어몰 메디칼센터)",128.883243672,35.225717538
성소아청소년과의원,김해시 함박로101번길 8 (외동),128.865568226,35.232841098
민소아청소년과의원,김해시 삼안로 223 (삼방동),128.910887259,35.247938147
동인의원,"김해시 평전로 205, 홍익아파트상가B동 (내동)",128.864623249,35.245581840
홍영기정형외과의원,김해시 삼계중앙로 27 (삼계동),128.867930307,35.260726158
신종민내과의원,김해시 활천로267번길 18 (삼방동),128.908671793,35.244498620
굿모닝의원,김해시 분성로727번길 11 (지내동),128.922428044,35.231561817
고운나라피부과의원,김해시 내외중앙로 57 (내동),128.866449914,35.235244074
구내과의원,김해시 함박로101번길 18 (외동),128.865749476,35.233788793
서울안과의원,"김해시 내외중앙로 84 (내동, 서울메디컬센터 8,9층)",128.867554616,35.237365115
신가정의학과의원,김해시 금관대로1193번길 12 (외동),128.852589974,35.234372071
김&김복음외과의원,"김해시 내외로 80 (외동, 옥정빌딩 3층)",128.865868259,35.234425094
소명의원,"김해시 가락로 246, 대동아파트 상가 201호 (구산동)",128.874440994,35.247231571
삼성이비인후과의원,김해시 내외로 79 (내동),128.865950706,35.234836203
삼성메디칼의원,김해시 가야로38번길 2 (삼계동),128.864414761,35.269681395
양호성안과의원,"김해시 분성로 321, 골든에비뉴 205호 (서상동)",128.881128539,35.233608373
이재홍내과의원,"김해시 내외로 79, 2층 (내동, 꿀벌상가)",128.865950706,35.234836203
홍비뇨기과의원,"김해시 내외중앙로 50, 303호 (외동, 센타빌딩)",128.866961037,35.234318503
우리들의원,김해시 활천로 41 (삼정동),128.893268451,35.231339538
이승민의원,김해시 전하로 244 (전하동),128.872857127,35.225367549
노의원,김해시 가락로 13 (부원동),128.882361049,35.227734597
동김해내과의원,김해시 인제로 163 (어방동),128.903597763,35.243143208
최안과의원,"김해시 가락로 19, 아름다운뉴욕메디컬센터 7,8층 (부원동)",128.882195934,35.228349536
김용철의원,김해시 분성로 331 (서상동),128.882262580,35.233721433
최장락내과의원,"김해시 내외중앙로 47, 202호 (외동, 풍림위너스타운)",128.866270540,35.234289756
박근수내과의원,김해시 가락로 5 (부원동),128.882402683,35.226946856
강성구이비인후과의원,"김해시 분성로 321, 202호 (서상동, 골든에비뉴)",128.881128539,35.233608373
한정실소아청소년과의원,"김해시 분성로 321, 2층 202호 (서상동, 골든에비뉴)",128.881128539,35.233608373
굿모닝내과의원,"김해시 분성로 321, 3층 302호 (서상동, 골든에비뉴)",128.881128539,35.233608373
김해성심의원,김해시 금관대로 1177 (외동),128.851957500,35.232690643
장연합의원,"김해시 가락로 39, 2층 (부원동)",128.881888393,35.230137351
한일이비인후과의원,김해시 가락로 34 (부원동),128.882574446,35.229635389
김해미래산부인과의원,김해시 분성로 316 (서상동),128.880545873,35.233230524
정소아청소년과의원,김해시 가락로 88-1 (서상동),128.881561833,35.234410015
윤기현소아청소년과의원,"김해시 김해대로 2349, 203호 (부원동, 부원역그린코아더센텀)",128.883422017,35.226944166
미리내소아청소년과의원,"김해시 능동로 153, 삼화빌딩 603호 (부곡동)",128.807968119,35.202454240
율하힐링의원,"김해시 율하3로 53, 203호 (율하동)",128.814825146,35.172811581
좋은눈안과의원,"김해시 율하6로 67, 솔로몬빌딩 503,504,505호 (장유동)",128.822792342,35.171485067
율하바른내과의원,"김해시 율하1로 110, 중앙프라자 4층 402호 (율하동)",128.815656003,35.172736643
더사랑내과의원,"김해시 율하6로 67, 율하솔로몬빌딩 602,603,604호 (장유동)",128.822792342,35.171485067
율하진마취통증의학과의원,"김해시 율하6로 64, 굿프라임빌딩 202,203,205호 (장유동)",128.823357541,35.171927379
미소산부인과의원,"김해시 율하6로 67, 율하솔로몬빌딩 501,502호 (장유동)",128.822792342,35.171485067
장유아나파마취통증의학과의원,"김해시 능동로 161, 장유제일프라자 501호 (부곡동)",128.808717719,35.203049082
율하서울정형외과의원,"김해시 율하6로 49, 901-1,1001-1,1001-2호 (장유동)",128.824619412,35.171211918
윤현실산부인과의원,"김해시 진영읍 장등로19번길 41, 유니온빌딩 201호",128.730271451,35.308318526
오늘더맑음의원,"김해시 율하6로 49, 401,402,403호 (장유동)",128.824619412,35.171211918
장유닥터윤의원,"김해시 장유로334번길 9, 302동 204호 (신문동, 장유경동리인하이스트)",128.817065179,35.195033081
율하별산부인과의원,"김해시 율하6로 56, 메이저타워 401,407호 (장유동)",128.824106972,35.171845162
진영센텀내과의원,"김해시 진영읍 김해대로365번길 6-10, 센텀메디컬센터 602호",128.730624873,35.306942959
진영센텀정형외과의원,"김해시 진영읍 김해대로365번길 6-10, 센텀메디컬센터 501호",128.730624873,35.306942959
연세바른본의원,"김해시 장유로 232, 장유코아상가 303,601호 (부곡동)",128.809337979,35.203559504
율하편내과의원,"김해시 율하6로 56, 메이저타워 402,403,404호 (장유동)",128.824106972,35.171845162
정피부과의원,"김해시 진영읍 장등로19번길 41, 유니온빌딩 501호",128.730271451,35.308318526
율하봄소아청소년과의원,"김해시 율하6로 56, 3층 302,303,304,305,306호 (장유동)",128.824106972,35.171845162
센텀코어더율의원,"김해시 율하6로 56, 메이저타워 601,602,603,604호 (장유동)",128.824106972,35.171845162
진영서울튼튼마취통증의학과의원,"김해시 진영읍 장등로 18, 401,402,403호",128.735325035,35.307802820
서울소아청소년과의원,"김해시 번화1로80번길 5, 메카메디칼빌딩 5,6층 502호외 3호 601호외 4호 (대청동)",128.800013445,35.194715110
드림소아청소년과의원,"김해시 율하로 476, 302호 (장유동)",128.826699480,35.167052506
율하바른의원,"김해시 율하로 478, 모산메디피아 2층 201호 (장유동)",128.826926460,35.167254529
바른이비인후과의원,"김해시 율하로 478, 모산메디피아 302호 (장유동)",128.826926460,35.167254529
우리들조은내과의원,"김해시 율하3로 65, 2층 201,202호 (율하동)",128.815503906,35.173496646
고운정형외과의원,"김해시 번화1로80번길 15, 다성빌딩 501~503호 (대청동)",128.801038933,35.195061839
진영삼성안과의원,"김해시 진영읍 장등로 3, 2층",128.734708062,35.306689770
바른정형외과의원,"김해시 율하1로 106, 6층 601호 (율하동)",128.815047990,35.173109151
장유서화정형외과의원,"김해시 계동로102번길 31, 3층 (대청동)",128.797571557,35.186370733
율하수안피부과의원,"김해시 율하3로 38, 경보오션 602호 (율하동)",128.814376308,35.171266987
팔판이비인후과의원,"김해시 계동로 21, 302호 (관동동)",128.795707942,35.178159394
보강연합의원,"김해시 월산로 111-43, 드림피아상가 201,302 일부, 303호 (부곡동)",128.800689426,35.203619353
삼성내과의원,"김해시 진영읍 장등로19번길 41, 유니온빌딩 301호",128.730271451,35.308318526
늘푸른내과의원,"김해시 번화1로79번길 2, 센터빌딩 (대청동)",128.799203814,35.194438994
장유산부인과의원,"김해시 번화1로80번길 5, 메카메디칼빌딩 2,3,4층 (대청동)",128.800013445,35.194715110
푸른이비인후과의원,"김해시 진영읍 김해대로361번길 8, 4층 403호 (진영굿프라임2)",128.729802966,35.307552320
구샘재활의학과의원,"김해시 진영읍 김해대로361번길 16, 3층",128.729893096,35.308216905
율하이비인후과의원,"김해시 율하3로 37, 402호 (율하동)",128.813741434,35.171658666
최경서가정의학과의원,김해시 계동로 21 (관동동),128.795707942,35.178159394
율하엘의원,"김해시 율하1로 110, 601호 (율하동)",128.815656003,35.172736643
진영하니이비인후과의원,"김해시 진영읍 장등로 15, 2층",128.734834980,35.307749138
율하김내과의원,"김해시 율하3로 21, 502호 (율하동, 율하메디칼)",128.812677585,35.170443478
율하밝은권안과의원,"김해시 율하3로 21, 701호 (율하동, 율하메디칼)",128.812677585,35.170443478
박소아청소년과의원,"김해시 율하1로 106, 402호 (율하동, 네오프라자)",128.815047990,35.173109151
닥터제이의원,"김해시 율하3로 21, 702호 (율하동, 율하메디컬7층)",128.812677585,35.170443478
진영삼성비뇨기과의원,김해시 진영읍 장등로 7,128.734782814,35.307076758
사랑해소아청소년과연합의원,"김해시 율하1로 110, 4층 401호 (율하동)",128.815656003,35.172736643
장유내과의원,"김해시 능동로 157, 거북빌딩 5,6층 (부곡동)",128.808400100,35.202823732
오이비인후과의원,"김해시 율하1로 106, 403호 (율하동)",128.815047990,35.173109151
율하메디칼정형외과의원,"김해시 율하3로 21, 6층 (율하동, 율하메디칼)",128.812677585,35.170443478
더맑은피부과의원,"김해시 능동로167번길 1, 204호 (부곡동, 넥스코아상가)",128.808982950,35.203186630
김진만내과의원,"김해시 진영읍 김해대로361번길 16, 401호 (나경타운)",128.729893096,35.308216905
윤인규이비인후과의원,김해시 율하3로 21 (율하동),128.812677585,35.170443478
장유맑은이비인후과의원,김해시 계동로102번길 31 (대청동),128.797571557,35.186370733
한마음의원,"김해시 진영읍 장등로 11, 201,202호 (영프라자빌딩)",128.734823271,35.307444461
이화뷰의원,"김해시 능동로 157, 701호 (부곡동, 거북빌딩)",128.808400100,35.202823732
이용길안과의원,"김해시 능동로 153 (부곡동, 삼화빌딩 201호)",128.807968119,35.202454240
코아이비인후과의원,"김해시 장유로 232, 301,302호 (부곡동, 코아상가)",128.809337979,35.203559504
미래소아청소년과의원,김해시 진영읍 장등로19번길 41 (유니온빌딩202호),128.730271451,35.308318526
김인기내과의원,김해시 계동로23번길 3-19 (관동동),128.795710131,35.177555433
윤이비인후과의원,"김해시 능동로 159, 203호 (부곡동, 메드피아빌딩)",128.808547600,35.202944007
진영성모안과의원,"김해시 진영읍 여래로 21, 6층",128.735033278,35.304338188
한림정내과의원,김해시 한림면 한림로 407,128.801863263,35.322998348
오즈산부인과의원,김해시 계동로 203 (대청동),128.800382270,35.190218993
하나의원,"김해시 번화1로80번길 15, 302호 (대청동, 다성아워스빌딩)",128.801038933,35.195061839
한나이비인후과의원,"김해시 번화1로80번길 15, 303호 (대청동, 다성아워스)",128.801038933,35.195061839
백세의원,"김해시 진영읍 여래로 21, 4층",128.735033278,35.304338188
진례의원,김해시 진례면 진례로 263,128.747666389,35.250658624
김민성내과의원,"김해시 장유로 262, 3층 (부곡동, 삼봉빌딩)",128.811642127,35.201472773
굿모닝비뇨기과의원,"김해시 능동로155번길 2, 303호 (부곡동, 장유월드피아상가)",128.808259125,35.202672793
미소진의원,"김해시 번화1로84번길 28, 203호 (대청동, 탑스코어빌딩)",128.802337924,35.195499615
속시원내과의원,"김해시 능동로155번길 2, 203호 (부곡동, 월드피아상가)",128.808259125,35.202672793
큰나무정형외과의원,"김해시 능동로 161, 4층 (부곡동, 제일프라자)",128.808717719,35.203049082
굿모닝안과의원,"김해시 장유로 230, 301호 (부곡동, 프리마빌딩)",128.809146662,35.203689020
신성정형외과의원,김해시 금관대로599번길 6 (내덕동),128.815133197,35.202615194
장진규소아청소년과의원,"김해시 대청로 117, 320호 (대청동, 대청프라자)",128.798125224,35.185332674
하정산부인과의원,김해시 능동로 159 (부곡동),128.808547600,35.202944007
박재영내과의원,김해시 진영읍 진영로 211,128.735952183,35.302785922
정의태내과의원,"김해시 대청로 117 (대청동, 대청프라자)",128.798125224,35.185332674
김명준내과의원,"김해시 장유로 230 (부곡동, 프리마빌딩)",128.809146662,35.203689020
장유으뜸신경외과의원,"김해시 장유로 262, 2층 (부곡동)",128.811642127,35.201472773
소영철내과의원,"김해시 장유로301번길 3, 청학프라자 301,704호 (무계동)",128.815060626,35.199987704
황정하이비인후과의원,"김해시 월산로 1, 2층 (부곡동)",128.811406234,35.201662129
이수창내과의원,"김해시 능동로 159, 201호 (부곡동, 메디피아빌딩)",128.808547600,35.202944007
이승훈외과의원,김해시 장유로 282 (무계동),128.813308902,35.200189533
부경신경과의원,김해시 진례면 송현로 12,128.749489041,35.248721501
김영일정형외과의원,김해시 진영읍 여래로 9-10,128.735310151,35.305606188
코와이비인후과의원,"김해시 진영읍 여래로 21, 2층 201, 202호 (우리메디칼 )",128.735033278,35.304338188
진영제일의원,김해시 진영읍 진영로 189-1,128.733825488,35.303126242
중앙의원,"김해시 진영읍 진영로 196, 2층",128.734256157,35.302728607
장덕기내과의원,김해시 진영읍 여래로 21,128.735033278,35.304338188
성심정형외과의원,김해시 진영읍 진영로 160,128.730574808,35.303102583
진영의원,김해시 진영읍 여래로 35,128.734754257,35.302990875
삼성의원,"김해시 진영읍 진영로 186, 1층",128.733198408,35.302815249
밀양이비인후과의원,"밀양시 삼문강변로 344-6, 3층 4층 (삼문동)",128.753745478,35.489306995
밀양미래연합의원,밀양시 북성로 10 (내이동),128.744016431,35.498036337
밀양삼성안과의원,"밀양시 북성로 11-2, 5층 (내이동)",128.744203402,35.498455944
황의원,밀양시 삼랑진읍 천태로 75,128.842882665,35.400054596
밀양정통의원,밀양시 중앙로 357 (내일동),128.752902383,35.494265096
서울정형외과의원,"밀양시 북성로 11-2 (내이동, (1층, 4층))",128.744203402,35.498455944
연세이비인후과의원,"밀양시 삼문중앙로 37, 1층 (삼문동)",128.755966412,35.485320803
아름다운자모산부인과의원,밀양시 삼문중앙로 14 (삼문동),128.754118118,35.483837752
이보형소아청소년과의원,"밀양시 중앙로 381, 2층 (내이동)",128.751136584,35.495667749
안상준내과의원,"밀양시 삼문중앙로 49, 4층 (삼문동, 세종빌딩)",128.757051284,35.485903456
미즈산부인과의원,"밀양시 삼문중앙로 49, 2층 (삼문동, 세종빌딩)",128.757051284,35.485903456
밀양선비뇨기과의원,"밀양시 중앙로 413, 302호 (내이동)",128.747778434,35.496564994
밀양한빛안과의원,"밀양시 중앙로 249, 1-2층 (삼문동)",128.756641186,35.485693761
이정훈내과의원,밀양시 중앙로 358 (내일동),128.753224063,35.494339646
밀양탑비뇨기과의원,"밀양시 북성로 11-2, 3층 (내이동)",128.744203402,35.498455944
산내의원,밀양시 산내면 송백1길 20,128.881052653,35.586704511
하나정형외과의원,밀양시 중앙로 285 (삼문동),128.754348969,35.488230351
서울피부과의원,"밀양시 중앙로 381, 4-5층 (내이동, 보람빌딩)",128.751136584,35.495667749
고운의원,"밀양시 삼문중앙로 38, 2층 (삼문동)",128.756138193,35.484970543
우리이비인후과의원,"밀양시 중앙로 413, 2층 202호 (내이동, 제일메디칼빌딩)",128.747778434,35.496564994
우안과의원,"밀양시 석정로 7-1 (내일동, 남정빌딩)",128.752970273,35.491534551
하준호 내과의원,"밀양시 하남읍 초하로 746, A동 2층 101호 (행복한마을아파트)",128.705426999,35.374756574
송광호의원,"밀양시 삼랑진읍 천태로 13-1, 1층",128.837991202,35.397246759
예림가정의학과의원,밀양시 상남면 고노실길 4,128.751265320,35.459083046
라파마취통증의학과의원,"밀양시 북성로 10 (내이동, 애플빌딩(3층))",128.744016431,35.498036337
현대의원,밀양시 무안면 사명로 496-1,128.651789870,35.468927677
오용창 내과의원,밀양시 삼랑진읍 외송중앙길 4,128.837407316,35.396157754
세광가정의학과 의원,밀양시 가곡7길 3 (가곡동),128.767454765,35.474908064
홍의원,밀양시 약산로 42 (내이동),128.749353775,35.492509435
석신경외과 의원,밀양시 북성로 11-6 (내이동),128.744221281,35.498861918
정내과의원,밀양시 중앙로 337 (내일동),128.753852643,35.492959042
밀양정형외과의원,밀양시 중앙로 451 (내이동),128.745503317,35.499236290
안아픈세상정웅기의원,밀양시 무안면 사명로 480,128.651116589,35.467476735
김보영안과의원,"밀양시 삼문중앙로 49, 3층 (삼문동, 세종메디칼 빌딩)",128.757051284,35.485903456
수산의원,밀양시 하남읍 수산중앙로 7,128.706311510,35.374635574
성심의원,밀양시 북성로 11-10 (내이동),128.743992815,35.499073498
금송의원,밀양시 삼랑진읍 천태로 50,128.840520453,35.399398860
신일외과의원,밀양시 밀성로 12 (내이동),128.749555581,35.501787937
김내과의원,"밀양시 내이2길 28, 2~5층 (내이동)",128.746005024,35.497642619
승진의원,밀양시 하남읍 시서안길 34,128.706333147,35.374304571
인성의원,밀양시 하남읍 수산중앙로 21,128.707710570,35.374965268
밀양성모안과의원,"밀양시 중앙로413, 4층 403호",128.747778434,35.496564994
참사랑의원,거제시 거제면 읍내로 6길 15,128.590870946,34.850337676
거제몽돌신경외과의원,"거제시 거제중앙로 1868-2, 3층 301~303호 (고현동)",128.624857988,34.885525252
대교의원,"거제시 사등면 거제남서로 5348, 2층",128.478641573,34.883065826
박해동내과의원,"거제시 서문로3길 26, 윤석빌딩 5,6층 (고현동)",128.618500548,34.890546366
고현 정의원,거제시 거제중앙로 1938-3(고현동),128.622580336,34.891130897
오여성의원,"거제시 거제중앙로 1868-2, 9층 (고현동)",128.624857988,34.885525252
서울의원,거제시 일운면 지세포로 98-1,128.704243658,34.829458524
더열린의원,"거제시 아주1로2길 62, 명주빌딩 5층 (아주동)",128.685634458,34.867451758
고려의원,"거제시 중곡로5길 2, 남영상가 2층 (고현동)",128.629757159,34.896328213
메디컬밸런스의원,거제시 상동5길 79 (상동동),128.632132710,34.863539150
리움여성의원,"거제시 옥포로 210, 2층 (옥포동)",128.691187698,34.893434235
